$GPGGA,190000.000,3346.8778,N,08424.0586,W,1,06,2.9,326.9,M,-30.8,M,,0000*67
$GPGGA,190100.000,3346.8778,N,08424.0586,W,1,06,2.9,326.9,M,-30.8,M,,0000*67
$GPGGA,190200.000,3346.8778,N,08424.0586,W,1,06,2.9,326.9,M,-30.8,M,,0000*67
$GPGGA,190300.000,3346.8778,N,08424.0586,W,1,06,2.9,326.9,M,-30.8,M,,0000*67
$GPGGA,190400.000,3346.8778,N,08424.0586,W,1,06,2.9,326.9,M,-30.8,M,,0000*67
$GPGGA,190500.000,3346.8778,N,08424.0586,W,1,06,2.9,326.9,M,-30.8,M,,0000*67
$GPGGA,190600.000,3346.8778,N,08424.0586,W,1,06,2.9,326.9,M,-30.8,M,,0000*67
$GPGGA,190700.000,3346.8778,N,08424.0586,W,1,06,2.9,326.9,M,-30.8,M,,0000*67
$GPGGA,190800.000,3346.8778,N,08424.0586,W,1,06,2.9,326.9,M,-30.8,M,,0000*67
$GPGGA,190900.000,3346.8778,N,08424.0586,W,1,06,2.9,326.9,M,-30.8,M,,0000*67
$GPGGA,191000.000,3346.8778,N,08424.0586,W,1,06,2.9,326.9,M,-30.8,M,,0000*67
$GPGGA,191100.000,3346.8778,N,08424.0586,W,1,06,2.9,326.9,M,-30.8,M,,0000*67
$GPGGA,191200.000,3346.8778,N,08424.0586,W,1,06,2.9,326.9,M,-30.8,M,,0000*67
$GPGGA,191300.000,3346.8778,N,08424.0586,W,1,06,2.9,326.9,M,-30.8,M,,0000*67
$GPGGA,191400.000,3346.8778,N,08424.0586,W,1,06,2.9,326.9,M,-30.8,M,,0000*67
$GPGGA,191500.000,3346.8778,N,08424.0586,W,1,06,2.9,326.9,M,-30.8,M,,0000*67
$GPGGA,191600.000,3346.8778,N,08424.0586,W,1,06,2.9,326.9,M,-30.8,M,,0000*67
$GPGGA,191700.000,3346.8778,N,08424.0586,W,1,06,2.9,326.9,M,-30.8,M,,0000*67
$GPGGA,191800.000,3346.8778,N,08424.0586,W,1,06,2.9,326.9,M,-30.8,M,,0000*67
$GPGGA,191900.000,3346.8778,N,08424.0586,W,1,06,2.9,326.9,M,-30.8,M,,0000*67
$GPGGA,192000.000,3346.8778,N,08424.0586,W,1,06,2.9,326.9,M,-30.8,M,,0000*67
$GPGGA,192100.000,3346.8778,N,08424.0586,W,1,06,2.9,326.9,M,-30.8,M,,0000*67
$GPGGA,192200.000,3346.8778,N,08424.0586,W,1,06,2.9,326.9,M,-30.8,M,,0000*67
$GPGGA,192300.000,3346.8778,N,08424.0586,W,1,06,2.9,326.9,M,-30.8,M,,0000*67
$GPGGA,192400.000,3346.8778,N,08424.0586,W,1,06,2.9,326.9,M,-30.8,M,,0000*67
$GPGGA,192500.000,3346.8778,N,08424.0586,W,1,06,2.9,326.9,M,-30.8,M,,0000*67
$GPGGA,192600.000,3346.8778,N,08424.0586,W,1,06,2.9,326.9,M,-30.8,M,,0000*67
$GPGGA,192700.000,3346.8778,N,08424.0586,W,1,06,2.9,326.9,M,-30.8,M,,0000*67
$GPGGA,192800.000,3346.8778,N,08424.0586,W,1,06,2.9,326.9,M,-30.8,M,,0000*67
$GPGGA,192900.000,3346.8778,N,08424.0586,W,1,06,2.9,326.9,M,-30.8,M,,0000*67
$GPGGA,193000.000,3346.8778,N,08424.0586,W,1,06,2.9,326.9,M,-30.8,M,,0000*67
$GPGGA,193100.000,3346.8778,N,08424.0586,W,1,06,2.9,326.9,M,-30.8,M,,0000*67
$GPGGA,193200.000,3346.8778,N,08424.0586,W,1,06,2.9,326.9,M,-30.8,M,,0000*67
$GPGGA,193300.000,3346.8778,N,08424.0586,W,1,06,2.9,326.9,M,-30.8,M,,0000*67
$GPGGA,193400.000,3346.8778,N,08424.0586,W,1,06,2.9,326.9,M,-30.8,M,,0000*67
$GPGGA,193500.000,3346.8778,N,08424.0586,W,1,06,2.9,326.9,M,-30.8,M,,0000*67
$GPGGA,193600.000,3346.8778,N,08424.0586,W,1,06,2.9,326.9,M,-30.8,M,,0000*67
$GPGGA,193700.000,3346.8778,N,08424.0586,W,1,06,2.9,326.9,M,-30.8,M,,0000*67
$GPGGA,193800.000,3346.8778,N,08424.0586,W,1,06,2.9,326.9,M,-30.8,M,,0000*67
$GPGGA,193900.000,3346.8778,N,08424.0586,W,1,06,2.9,326.9,M,-30.8,M,,0000*67
$GPGGA,194000.000,3346.8778,N,08424.0586,W,1,06,2.9,326.9,M,-30.8,M,,0000*67
$GPGGA,194100.000,3346.8778,N,08424.0586,W,1,06,2.9,326.9,M,-30.8,M,,0000*67
$GPGGA,194200.000,3346.8778,N,08424.0586,W,1,06,2.9,326.9,M,-30.8,M,,0000*67
$GPGGA,194300.000,3346.8778,N,08424.0586,W,1,06,2.9,326.9,M,-30.8,M,,0000*67
$GPGGA,194400.000,3346.8778,N,08424.0586,W,1,06,2.9,326.9,M,-30.8,M,,0000*67
$GPGGA,194500.000,3346.8778,N,08424.0586,W,1,06,2.9,326.9,M,-30.8,M,,0000*67
$GPGGA,194600.000,3346.8778,N,08424.0586,W,1,06,2.9,326.9,M,-30.8,M,,0000*67
$GPGGA,194700.000,3346.8778,N,08424.0586,W,1,06,2.9,326.9,M,-30.8,M,,0000*67
$GPGGA,194800.000,3346.8778,N,08424.0586,W,1,06,2.9,326.9,M,-30.8,M,,0000*67
$GPGGA,194900.000,3346.8778,N,08424.0586,W,1,06,2.9,326.9,M,-30.8,M,,0000*67
$GPGGA,195000.000,3346.8778,N,08424.0586,W,1,06,2.9,326.9,M,-30.8,M,,0000*67
$GPGGA,195100.000,3346.8778,N,08424.0586,W,1,06,2.9,326.9,M,-30.8,M,,0000*67
$GPGGA,195200.000,3346.8778,N,08424.0586,W,1,06,2.9,326.9,M,-30.8,M,,0000*67
$GPGGA,195300.000,3346.8778,N,08424.0586,W,1,06,2.9,326.9,M,-30.8,M,,0000*67
$GPGGA,195400.000,3346.8778,N,08424.0586,W,1,06,2.9,326.9,M,-30.8,M,,0000*67
$GPGGA,195500.000,3346.8778,N,08424.0586,W,1,06,2.9,326.9,M,-30.8,M,,0000*67
$GPGGA,195600.000,3346.8778,N,08424.0586,W,1,06,2.9,326.9,M,-30.8,M,,0000*67
$GPGGA,195700.000,3346.8778,N,08424.0586,W,1,06,2.9,326.9,M,-30.8,M,,0000*67
$GPGGA,195800.000,3346.8778,N,08424.0586,W,1,06,2.9,326.9,M,-30.8,M,,0000*67
$GPGGA,195900.000,3346.8778,N,08424.0586,W,1,06,2.9,326.9,M,-30.8,M,,0000*67
$GPGGA,200000.000,3346.8778,N,08424.0586,W,1,06,2.9,326.9,M,-30.8,M,,0000*67
$GPGGA,200100.000,3346.8778,N,08424.0586,W,1,06,2.9,326.9,M,-30.8,M,,0000*67
$GPGGA,200200.000,3346.8778,N,08424.0586,W,1,06,2.9,326.9,M,-30.8,M,,0000*67
$GPGGA,200300.000,3346.8778,N,08424.0586,W,1,06,2.9,326.9,M,-30.8,M,,0000*67
$GPGGA,200400.000,3346.8778,N,08424.0586,W,1,06,2.9,326.9,M,-30.8,M,,0000*67
$GPGGA,200500.000,3346.8778,N,08424.0586,W,1,06,2.9,326.9,M,-30.8,M,,0000*67
$GPGGA,200600.000,3346.8778,N,08424.0586,W,1,06,2.9,326.9,M,-30.8,M,,0000*67
$GPGGA,200700.000,3346.8778,N,08424.0586,W,1,06,2.9,326.9,M,-30.8,M,,0000*67
$GPGGA,200800.000,3346.8778,N,08424.0586,W,1,06,2.9,326.9,M,-30.8,M,,0000*67
$GPGGA,200900.000,3346.8778,N,08424.0586,W,1,06,2.9,326.9,M,-30.8,M,,0000*67
$GPGGA,201000.000,3346.8778,N,08424.0586,W,1,06,2.9,326.9,M,-30.8,M,,0000*67
$GPGGA,201100.000,3346.8778,N,08424.0586,W,1,06,2.9,326.9,M,-30.8,M,,0000*67
$GPGGA,201200.000,3346.8778,N,08424.0586,W,1,06,2.9,326.9,M,-30.8,M,,0000*67
$GPGGA,201300.000,3346.8778,N,08424.0586,W,1,06,2.9,326.9,M,-30.8,M,,0000*67
$GPGGA,201400.000,3346.8778,N,08424.0586,W,1,06,2.9,326.9,M,-30.8,M,,0000*67
$GPGGA,201500.000,3346.8778,N,08424.0586,W,1,06,2.9,326.9,M,-30.8,M,,0000*67
$GPGGA,201600.000,3346.8778,N,08424.0586,W,1,06,2.9,326.9,M,-30.8,M,,0000*67
$GPGGA,201700.000,3346.8778,N,08424.0586,W,1,06,2.9,326.9,M,-30.8,M,,0000*67
$GPGGA,201800.000,3346.8778,N,08424.0586,W,1,06,2.9,326.9,M,-30.8,M,,0000*67
$GPGGA,201900.000,3346.8778,N,08424.0586,W,1,06,2.9,326.9,M,-30.8,M,,0000*67
$GPGGA,202000.000,3346.8778,N,08424.0586,W,1,06,2.9,326.9,M,-30.8,M,,0000*67
$GPGGA,202100.000,3346.8778,N,08424.0586,W,1,06,2.9,326.9,M,-30.8,M,,0000*67
$GPGGA,202200.000,3346.8778,N,08424.0586,W,1,06,2.9,326.9,M,-30.8,M,,0000*67
$GPGGA,202300.000,3346.8778,N,08424.0586,W,1,06,2.9,326.9,M,-30.8,M,,0000*67
$GPGGA,202400.000,3346.8778,N,08424.0586,W,1,06,2.9,326.9,M,-30.8,M,,0000*67
$GPGGA,202500.000,3346.8778,N,08424.0586,W,1,06,2.9,326.9,M,-30.8,M,,0000*67
$GPGGA,202600.000,3346.8778,N,08424.0586,W,1,06,2.9,326.9,M,-30.8,M,,0000*67
$GPGGA,202700.000,3346.8778,N,08424.0586,W,1,06,2.9,326.9,M,-30.8,M,,0000*67
$GPGGA,202800.000,3346.8778,N,08424.0586,W,1,06,2.9,326.9,M,-30.8,M,,0000*67
$GPGGA,202900.000,3346.8778,N,08424.0586,W,1,06,2.9,326.9,M,-30.8,M,,0000*67
$GPGGA,203000.000,3346.8778,N,08424.0586,W,1,06,2.9,326.9,M,-30.8,M,,0000*67
$GPGGA,203100.000,3346.8778,N,08424.0586,W,1,06,2.9,326.9,M,-30.8,M,,0000*67
$GPGGA,203200.000,3346.8778,N,08424.0586,W,1,06,2.9,326.9,M,-30.8,M,,0000*67
$GPGGA,203300.000,3346.8778,N,08424.0586,W,1,06,2.9,326.9,M,-30.8,M,,0000*67
$GPGGA,203400.000,3346.8778,N,08424.0586,W,1,06,2.9,326.9,M,-30.8,M,,0000*67
$GPGGA,203500.000,3346.8778,N,08424.0586,W,1,06,2.9,326.9,M,-30.8,M,,0000*67
$GPGGA,203600.000,3346.8778,N,08424.0586,W,1,06,2.9,326.9,M,-30.8,M,,0000*67
$GPGGA,203700.000,3346.8778,N,08424.0586,W,1,06,2.9,326.9,M,-30.8,M,,0000*67
$GPGGA,203800.000,3346.8778,N,08424.0586,W,1,06,2.9,326.9,M,-30.8,M,,0000*67
$GPGGA,203900.000,3346.8778,N,08424.0586,W,1,06,2.9,326.9,M,-30.8,M,,0000*67
$GPGGA,204000.000,3346.8778,N,08424.0586,W,1,06,2.9,326.9,M,-30.8,M,,0000*67
$GPGGA,204100.000,3346.8778,N,08424.0586,W,1,06,2.9,326.9,M,-30.8,M,,0000*67
$GPGGA,204200.000,3346.8778,N,08424.0586,W,1,06,2.9,326.9,M,-30.8,M,,0000*67
$GPGGA,204300.000,3346.8778,N,08424.0586,W,1,06,2.9,326.9,M,-30.8,M,,0000*67
$GPGGA,204400.000,3346.8778,N,08424.0586,W,1,06,2.9,326.9,M,-30.8,M,,0000*67
$GPGGA,204500.000,3346.8778,N,08424.0586,W,1,06,2.9,326.9,M,-30.8,M,,0000*67
$GPGGA,204600.000,3346.8778,N,08424.0586,W,1,06,2.9,326.9,M,-30.8,M,,0000*67
$GPGGA,204700.000,3346.8778,N,08424.0586,W,1,06,2.9,326.9,M,-30.8,M,,0000*67
$GPGGA,204800.000,3346.8778,N,08424.0586,W,1,06,2.9,326.9,M,-30.8,M,,0000*67
$GPGGA,204900.000,3346.8778,N,08424.0586,W,1,06,2.9,326.9,M,-30.8,M,,0000*67
$GPGGA,205000.000,3346.8778,N,08424.0586,W,1,06,2.9,326.9,M,-30.8,M,,0000*67
$GPGGA,205100.000,3346.8778,N,08424.0586,W,1,06,2.9,326.9,M,-30.8,M,,0000*67
$GPGGA,205200.000,3346.8778,N,08424.0586,W,1,06,2.9,326.9,M,-30.8,M,,0000*67
$GPGGA,205300.000,3346.8778,N,08424.0586,W,1,06,2.9,326.9,M,-30.8,M,,0000*67
$GPGGA,205400.000,3346.8778,N,08424.0586,W,1,06,2.9,326.9,M,-30.8,M,,0000*67
$GPGGA,205500.000,3346.8778,N,08424.0586,W,1,06,2.9,326.9,M,-30.8,M,,0000*67
$GPGGA,205600.000,3346.8778,N,08424.0586,W,1,06,2.9,326.9,M,-30.8,M,,0000*67
$GPGGA,205700.000,3346.8778,N,08424.0586,W,1,06,2.9,326.9,M,-30.8,M,,0000*67
$GPGGA,205800.000,3346.8778,N,08424.0586,W,1,06,2.9,326.9,M,-30.8,M,,0000*67
$GPGGA,205900.000,3346.8778,N,08424.0586,W,1,06,2.9,326.9,M,-30.8,M,,0000*67
$GPGGA,210000.000,3346.8778,N,08424.0586,W,1,06,2.9,326.9,M,-30.8,M,,0000*67
$GPGGA,210100.000,3346.8778,N,08424.0586,W,1,06,2.9,326.9,M,-30.8,M,,0000*67
$GPGGA,210200.000,3346.8778,N,08424.0586,W,1,06,2.9,326.9,M,-30.8,M,,0000*67
$GPGGA,210300.000,3346.8778,N,08424.0586,W,1,06,2.9,326.9,M,-30.8,M,,0000*67
$GPGGA,210400.000,3346.8778,N,08424.0586,W,1,06,2.9,326.9,M,-30.8,M,,0000*67
$GPGGA,210500.000,3346.8778,N,08424.0586,W,1,06,2.9,326.9,M,-30.8,M,,0000*67
$GPGGA,210600.000,3346.8778,N,08424.0586,W,1,06,2.9,326.9,M,-30.8,M,,0000*67
$GPGGA,210700.000,3346.8778,N,08424.0586,W,1,06,2.9,326.9,M,-30.8,M,,0000*67
$GPGGA,210800.000,3346.8778,N,08424.0586,W,1,06,2.9,326.9,M,-30.8,M,,0000*67
$GPGGA,210900.000,3346.8778,N,08424.0586,W,1,06,2.9,326.9,M,-30.8,M,,0000*67
$GPGGA,211000.000,3346.8778,N,08424.0586,W,1,06,2.9,326.9,M,-30.8,M,,0000*67
$GPGGA,211100.000,3346.8778,N,08424.0586,W,1,06,2.9,326.9,M,-30.8,M,,0000*67
$GPGGA,211200.000,3346.8778,N,08424.0586,W,1,06,2.9,326.9,M,-30.8,M,,0000*67
$GPGGA,211300.000,3346.8778,N,08424.0586,W,1,06,2.9,326.9,M,-30.8,M,,0000*67
$GPGGA,211400.000,3346.8778,N,08424.0586,W,1,06,2.9,326.9,M,-30.8,M,,0000*67
$GPGGA,211500.000,3346.8778,N,08424.0586,W,1,06,2.9,326.9,M,-30.8,M,,0000*67
$GPGGA,211600.000,3346.8778,N,08424.0586,W,1,06,2.9,326.9,M,-30.8,M,,0000*67
$GPGGA,211700.000,3346.8778,N,08424.0586,W,1,06,2.9,326.9,M,-30.8,M,,0000*67
$GPGGA,211800.000,3346.8778,N,08424.0586,W,1,06,2.9,326.9,M,-30.8,M,,0000*67
$GPGGA,211900.000,3346.8778,N,08424.0586,W,1,06,2.9,326.9,M,-30.8,M,,0000*67
$GPGGA,212000.000,3346.8778,N,08424.0586,W,1,06,2.9,326.9,M,-30.8,M,,0000*67
$GPGGA,212100.000,3346.8778,N,08424.0586,W,1,06,2.9,326.9,M,-30.8,M,,0000*67
$GPGGA,212200.000,3346.8778,N,08424.0586,W,1,06,2.9,326.9,M,-30.8,M,,0000*67
$GPGGA,212300.000,3346.8778,N,08424.0586,W,1,06,2.9,326.9,M,-30.8,M,,0000*67
$GPGGA,212400.000,3346.8778,N,08424.0586,W,1,06,2.9,326.9,M,-30.8,M,,0000*67
$GPGGA,212500.000,3346.8778,N,08424.0586,W,1,06,2.9,326.9,M,-30.8,M,,0000*67
$GPGGA,212600.000,3346.8778,N,08424.0586,W,1,06,2.9,326.9,M,-30.8,M,,0000*67
$GPGGA,212700.000,3346.8778,N,08424.0586,W,1,06,2.9,326.9,M,-30.8,M,,0000*67
$GPGGA,212800.000,3346.8778,N,08424.0586,W,1,06,2.9,326.9,M,-30.8,M,,0000*67
$GPGGA,212900.000,3346.8778,N,08424.0586,W,1,06,2.9,326.9,M,-30.8,M,,0000*67
$GPGGA,213000.000,3346.8778,N,08424.0586,W,1,06,2.9,326.9,M,-30.8,M,,0000*67
$GPGGA,213100.000,3346.8778,N,08424.0586,W,1,06,2.9,326.9,M,-30.8,M,,0000*67
$GPGGA,213200.000,3346.8778,N,08424.0586,W,1,06,2.9,326.9,M,-30.8,M,,0000*67
$GPGGA,213300.000,3346.8778,N,08424.0586,W,1,06,2.9,326.9,M,-30.8,M,,0000*67
$GPGGA,213400.000,3346.8778,N,08424.0586,W,1,06,2.9,326.9,M,-30.8,M,,0000*67
$GPGGA,213500.000,3346.8778,N,08424.0586,W,1,06,2.9,326.9,M,-30.8,M,,0000*67
$GPGGA,213600.000,3346.8778,N,08424.0586,W,1,06,2.9,326.9,M,-30.8,M,,0000*67
$GPGGA,213700.000,3346.8778,N,08424.0586,W,1,06,2.9,326.9,M,-30.8,M,,0000*67
$GPGGA,213800.000,3346.8778,N,08424.0586,W,1,06,2.9,326.9,M,-30.8,M,,0000*67
$GPGGA,213900.000,3346.8778,N,08424.0586,W,1,06,2.9,326.9,M,-30.8,M,,0000*67
$GPGGA,214000.000,3346.8778,N,08424.0586,W,1,06,2.9,326.9,M,-30.8,M,,0000*67
$GPGGA,214100.000,3346.8778,N,08424.0586,W,1,06,2.9,326.9,M,-30.8,M,,0000*67
$GPGGA,214200.000,3346.8778,N,08424.0586,W,1,06,2.9,326.9,M,-30.8,M,,0000*67
$GPGGA,214300.000,3346.8778,N,08424.0586,W,1,06,2.9,326.9,M,-30.8,M,,0000*67
$GPGGA,214400.000,3346.8778,N,08424.0586,W,1,06,2.9,326.9,M,-30.8,M,,0000*67
$GPGGA,214500.000,3346.8778,N,08424.0586,W,1,06,2.9,326.9,M,-30.8,M,,0000*67
$GPGGA,214600.000,3346.8778,N,08424.0586,W,1,06,2.9,326.9,M,-30.8,M,,0000*67
$GPGGA,214700.000,3346.8778,N,08424.0586,W,1,06,2.9,326.9,M,-30.8,M,,0000*67
$GPGGA,214800.000,3346.8778,N,08424.0586,W,1,06,2.9,326.9,M,-30.8,M,,0000*67
$GPGGA,214900.000,3346.8778,N,08424.0586,W,1,06,2.9,326.9,M,-30.8,M,,0000*67
$GPGGA,215000.000,3346.8778,N,08424.0586,W,1,06,2.9,326.9,M,-30.8,M,,0000*67
$GPGGA,215100.000,3346.8778,N,08424.0586,W,1,06,2.9,326.9,M,-30.8,M,,0000*67
$GPGGA,215200.000,3346.8778,N,08424.0586,W,1,06,2.9,326.9,M,-30.8,M,,0000*67
$GPGGA,215300.000,3346.8778,N,08424.0586,W,1,06,2.9,326.9,M,-30.8,M,,0000*67
$GPGGA,215400.000,3346.8778,N,08424.0586,W,1,06,2.9,326.9,M,-30.8,M,,0000*67
$GPGGA,215500.000,3346.8778,N,08424.0586,W,1,06,2.9,326.9,M,-30.8,M,,0000*67
$GPGGA,215600.000,3346.8778,N,08424.0586,W,1,06,2.9,326.9,M,-30.8,M,,0000*67
$GPGGA,215700.000,3346.8778,N,08424.0586,W,1,06,2.9,326.9,M,-30.8,M,,0000*67
$GPGGA,215800.000,3346.8778,N,08424.0586,W,1,06,2.9,326.9,M,-30.8,M,,0000*67
$GPGGA,215900.000,3346.8778,N,08424.0586,W,1,06,2.9,326.9,M,-30.8,M,,0000*67
$GPGGA,220000.000,3346.8778,N,08424.0586,W,1,06,2.9,326.9,M,-30.8,M,,0000*67
$GPGGA,220100.000,3346.8778,N,08424.0586,W,1,06,2.9,326.9,M,-30.8,M,,0000*67
$GPGGA,220200.000,3346.8778,N,08424.0586,W,1,06,2.9,326.9,M,-30.8,M,,0000*67
$GPGGA,220300.000,3346.8778,N,08424.0586,W,1,06,2.9,326.9,M,-30.8,M,,0000*67
$GPGGA,220400.000,3346.8778,N,08424.0586,W,1,06,2.9,326.9,M,-30.8,M,,0000*67
$GPGGA,220500.000,3346.8778,N,08424.0586,W,1,06,2.9,326.9,M,-30.8,M,,0000*67
$GPGGA,220600.000,3346.8778,N,08424.0586,W,1,06,2.9,326.9,M,-30.8,M,,0000*67
$GPGGA,220700.000,3346.8778,N,08424.0586,W,1,06,2.9,326.9,M,-30.8,M,,0000*67
$GPGGA,220800.000,3346.8778,N,08424.0586,W,1,06,2.9,326.9,M,-30.8,M,,0000*67
$GPGGA,220900.000,3346.8778,N,08424.0586,W,1,06,2.9,326.9,M,-30.8,M,,0000*67
$GPGGA,221000.000,3346.8778,N,08424.0586,W,1,06,2.9,326.9,M,-30.8,M,,0000*67
$GPGGA,221100.000,3346.8778,N,08424.0586,W,1,06,2.9,326.9,M,-30.8,M,,0000*67
$GPGGA,221200.000,3346.8778,N,08424.0586,W,1,06,2.9,326.9,M,-30.8,M,,0000*67
$GPGGA,221300.000,3346.8778,N,08424.0586,W,1,06,2.9,326.9,M,-30.8,M,,0000*67
$GPGGA,221400.000,3346.8778,N,08424.0586,W,1,06,2.9,326.9,M,-30.8,M,,0000*67
$GPGGA,221500.000,3346.8778,N,08424.0586,W,1,06,2.9,326.9,M,-30.8,M,,0000*67
$GPGGA,221600.000,3346.8778,N,08424.0586,W,1,06,2.9,326.9,M,-30.8,M,,0000*67
$GPGGA,221700.000,3346.8778,N,08424.0586,W,1,06,2.9,326.9,M,-30.8,M,,0000*67
$GPGGA,221800.000,3346.8778,N,08424.0586,W,1,06,2.9,326.9,M,-30.8,M,,0000*67
$GPGGA,221900.000,3346.8778,N,08424.0586,W,1,06,2.9,326.9,M,-30.8,M,,0000*67
$GPGGA,222000.000,3346.8778,N,08424.0586,W,1,06,2.9,326.9,M,-30.8,M,,0000*67
$GPGGA,222100.000,3346.8778,N,08424.0586,W,1,06,2.9,326.9,M,-30.8,M,,0000*67
$GPGGA,222200.000,3346.8778,N,08424.0586,W,1,06,2.9,326.9,M,-30.8,M,,0000*67
$GPGGA,222300.000,3346.8778,N,08424.0586,W,1,06,2.9,326.9,M,-30.8,M,,0000*67
$GPGGA,222400.000,3346.8778,N,08424.0586,W,1,06,2.9,326.9,M,-30.8,M,,0000*67
$GPGGA,222500.000,3346.8778,N,08424.0586,W,1,06,2.9,326.9,M,-30.8,M,,0000*67
$GPGGA,222600.000,3346.8778,N,08424.0586,W,1,06,2.9,326.9,M,-30.8,M,,0000*67
$GPGGA,222700.000,3346.8778,N,08424.0586,W,1,06,2.9,326.9,M,-30.8,M,,0000*67
$GPGGA,222800.000,3346.8778,N,08424.0586,W,1,06,2.9,326.9,M,-30.8,M,,0000*67
$GPGGA,222900.000,3346.8778,N,08424.0586,W,1,06,2.9,326.9,M,-30.8,M,,0000*67
$GPGGA,223000.000,3346.8778,N,08424.0586,W,1,06,2.9,326.9,M,-30.8,M,,0000*67
$GPGGA,223100.000,3346.8778,N,08424.0586,W,1,06,2.9,326.9,M,-30.8,M,,0000*67
$GPGGA,223200.000,3346.8778,N,08424.0586,W,1,06,2.9,326.9,M,-30.8,M,,0000*67
$GPGGA,223300.000,3346.8778,N,08424.0586,W,1,06,2.9,326.9,M,-30.8,M,,0000*67
$GPGGA,223400.000,3346.8778,N,08424.0586,W,1,06,2.9,326.9,M,-30.8,M,,0000*67
$GPGGA,223500.000,3346.8778,N,08424.0586,W,1,06,2.9,326.9,M,-30.8,M,,0000*67
$GPGGA,223600.000,3346.8778,N,08424.0586,W,1,06,2.9,326.9,M,-30.8,M,,0000*67
$GPGGA,223700.000,3346.8778,N,08424.0586,W,1,06,2.9,326.9,M,-30.8,M,,0000*67
$GPGGA,223800.000,3346.8778,N,08424.0586,W,1,06,2.9,326.9,M,-30.8,M,,0000*67
$GPGGA,223900.000,3346.8778,N,08424.0586,W,1,06,2.9,326.9,M,-30.8,M,,0000*67
$GPGGA,224000.000,3346.8778,N,08424.0586,W,1,06,2.9,326.9,M,-30.8,M,,0000*67
$GPGGA,224100.000,3346.8778,N,08424.0586,W,1,06,2.9,326.9,M,-30.8,M,,0000*67
$GPGGA,224200.000,3346.8778,N,08424.0586,W,1,06,2.9,326.9,M,-30.8,M,,0000*67
$GPGGA,224300.000,3346.8778,N,08424.0586,W,1,06,2.9,326.9,M,-30.8,M,,0000*67
$GPGGA,224400.000,3346.8778,N,08424.0586,W,1,06,2.9,326.9,M,-30.8,M,,0000*67
$GPGGA,224500.000,3346.8778,N,08424.0586,W,1,06,2.9,326.9,M,-30.8,M,,0000*67
$GPGGA,224600.000,3346.8778,N,08424.0586,W,1,06,2.9,326.9,M,-30.8,M,,0000*67
$GPGGA,224700.000,3346.8778,N,08424.0586,W,1,06,2.9,326.9,M,-30.8,M,,0000*67
$GPGGA,224800.000,3346.8778,N,08424.0586,W,1,06,2.9,326.9,M,-30.8,M,,0000*67
$GPGGA,224900.000,3346.8778,N,08424.0586,W,1,06,2.9,326.9,M,-30.8,M,,0000*67
$GPGGA,225000.000,3346.8778,N,08424.0586,W,1,06,2.9,326.9,M,-30.8,M,,0000*67
$GPGGA,225100.000,3346.8778,N,08424.0586,W,1,06,2.9,326.9,M,-30.8,M,,0000*67
$GPGGA,225200.000,3346.8778,N,08424.0586,W,1,06,2.9,326.9,M,-30.8,M,,0000*67
$GPGGA,225300.000,3346.8778,N,08424.0586,W,1,06,2.9,326.9,M,-30.8,M,,0000*67
$GPGGA,225400.000,3346.8778,N,08424.0586,W,1,06,2.9,326.9,M,-30.8,M,,0000*67
$GPGGA,225500.000,3346.8778,N,08424.0586,W,1,06,2.9,326.9,M,-30.8,M,,0000*67
$GPGGA,225600.000,3346.8778,N,08424.0586,W,1,06,2.9,326.9,M,-30.8,M,,0000*67
$GPGGA,225700.000,3346.8778,N,08424.0586,W,1,06,2.9,326.9,M,-30.8,M,,0000*67
$GPGGA,225800.000,3346.8778,N,08424.0586,W,1,06,2.9,326.9,M,-30.8,M,,0000*67
$GPGGA,225900.000,3346.8778,N,08424.0586,W,1,06,2.9,326.9,M,-30.8,M,,0000*67
$GPGGA,230000.000,3346.8778,N,08424.0586,W,1,06,2.9,326.9,M,-30.8,M,,0000*67
$GPGGA,230100.000,3346.8778,N,08424.0586,W,1,06,2.9,326.9,M,-30.8,M,,0000*67
$GPGGA,230200.000,3346.8778,N,08424.0586,W,1,06,2.9,326.9,M,-30.8,M,,0000*67
$GPGGA,230300.000,3346.8778,N,08424.0586,W,1,06,2.9,326.9,M,-30.8,M,,0000*67
$GPGGA,230400.000,3346.8778,N,08424.0586,W,1,06,2.9,326.9,M,-30.8,M,,0000*67
$GPGGA,230500.000,3346.8778,N,08424.0586,W,1,06,2.9,326.9,M,-30.8,M,,0000*67
$GPGGA,230600.000,3346.8778,N,08424.0586,W,1,06,2.9,326.9,M,-30.8,M,,0000*67
$GPGGA,230700.000,3346.8778,N,08424.0586,W,1,06,2.9,326.9,M,-30.8,M,,0000*67
$GPGGA,230800.000,3346.8778,N,08424.0586,W,1,06,2.9,326.9,M,-30.8,M,,0000*67
$GPGGA,230900.000,3346.8778,N,08424.0586,W,1,06,2.9,326.9,M,-30.8,M,,0000*67
$GPGGA,231000.000,3346.8778,N,08424.0586,W,1,06,2.9,326.9,M,-30.8,M,,0000*67
$GPGGA,231100.000,3346.8778,N,08424.0586,W,1,06,2.9,326.9,M,-30.8,M,,0000*67
$GPGGA,231200.000,3346.8778,N,08424.0586,W,1,06,2.9,326.9,M,-30.8,M,,0000*67
$GPGGA,231300.000,3346.8778,N,08424.0586,W,1,06,2.9,326.9,M,-30.8,M,,0000*67
$GPGGA,231400.000,3346.8778,N,08424.0586,W,1,06,2.9,326.9,M,-30.8,M,,0000*67
$GPGGA,231500.000,3346.8778,N,08424.0586,W,1,06,2.9,326.9,M,-30.8,M,,0000*67
$GPGGA,231600.000,3346.8778,N,08424.0586,W,1,06,2.9,326.9,M,-30.8,M,,0000*67
$GPGGA,231700.000,3346.8778,N,08424.0586,W,1,06,2.9,326.9,M,-30.8,M,,0000*67
$GPGGA,231800.000,3346.8778,N,08424.0586,W,1,06,2.9,326.9,M,-30.8,M,,0000*67
$GPGGA,231900.000,3346.8778,N,08424.0586,W,1,06,2.9,326.9,M,-30.8,M,,0000*67
$GPGGA,232000.000,3346.8778,N,08424.0586,W,1,06,2.9,326.9,M,-30.8,M,,0000*67
$GPGGA,232100.000,3346.8778,N,08424.0586,W,1,06,2.9,326.9,M,-30.8,M,,0000*67
$GPGGA,232200.000,3346.8778,N,08424.0586,W,1,06,2.9,326.9,M,-30.8,M,,0000*67
$GPGGA,232300.000,3346.8778,N,08424.0586,W,1,06,2.9,326.9,M,-30.8,M,,0000*67
$GPGGA,232400.000,3346.8778,N,08424.0586,W,1,06,2.9,326.9,M,-30.8,M,,0000*67
$GPGGA,232500.000,3346.8778,N,08424.0586,W,1,06,2.9,326.9,M,-30.8,M,,0000*67
$GPGGA,232600.000,3346.8778,N,08424.0586,W,1,06,2.9,326.9,M,-30.8,M,,0000*67
$GPGGA,232700.000,3346.8778,N,08424.0586,W,1,06,2.9,326.9,M,-30.8,M,,0000*67
$GPGGA,232800.000,3346.8778,N,08424.0586,W,1,06,2.9,326.9,M,-30.8,M,,0000*67
$GPGGA,232900.000,3346.8778,N,08424.0586,W,1,06,2.9,326.9,M,-30.8,M,,0000*67
$GPGGA,233000.000,3346.8778,N,08424.0586,W,1,06,2.9,326.9,M,-30.8,M,,0000*67
$GPGGA,233100.000,3346.8778,N,08424.0586,W,1,06,2.9,326.9,M,-30.8,M,,0000*67
$GPGGA,233200.000,3346.8778,N,08424.0586,W,1,06,2.9,326.9,M,-30.8,M,,0000*67
$GPGGA,233300.000,3346.8778,N,08424.0586,W,1,06,2.9,326.9,M,-30.8,M,,0000*67
$GPGGA,233400.000,3346.8778,N,08424.0586,W,1,06,2.9,326.9,M,-30.8,M,,0000*67
$GPGGA,233500.000,3346.8778,N,08424.0586,W,1,06,2.9,326.9,M,-30.8,M,,0000*67
$GPGGA,233600.000,3346.8778,N,08424.0586,W,1,06,2.9,326.9,M,-30.8,M,,0000*67
$GPGGA,233700.000,3346.8778,N,08424.0586,W,1,06,2.9,326.9,M,-30.8,M,,0000*67
$GPGGA,233800.000,3346.8778,N,08424.0586,W,1,06,2.9,326.9,M,-30.8,M,,0000*67
$GPGGA,233900.000,3346.8778,N,08424.0586,W,1,06,2.9,326.9,M,-30.8,M,,0000*67
$GPGGA,234000.000,3346.8778,N,08424.0586,W,1,06,2.9,326.9,M,-30.8,M,,0000*67
$GPGGA,234100.000,3346.8778,N,08424.0586,W,1,06,2.9,326.9,M,-30.8,M,,0000*67
$GPGGA,234200.000,3346.8778,N,08424.0586,W,1,06,2.9,326.9,M,-30.8,M,,0000*67
$GPGGA,234300.000,3346.8778,N,08424.0586,W,1,06,2.9,326.9,M,-30.8,M,,0000*67
$GPGGA,234400.000,3346.8778,N,08424.0586,W,1,06,2.9,326.9,M,-30.8,M,,0000*67
$GPGGA,234500.000,3346.8778,N,08424.0586,W,1,06,2.9,326.9,M,-30.8,M,,0000*67
$GPGGA,234600.000,3346.8778,N,08424.0586,W,1,06,2.9,326.9,M,-30.8,M,,0000*67
$GPGGA,234700.000,3346.8778,N,08424.0586,W,1,06,2.9,326.9,M,-30.8,M,,0000*67
$GPGGA,234800.000,3346.8778,N,08424.0586,W,1,06,2.9,326.9,M,-30.8,M,,0000*67
$GPGGA,234900.000,3346.8778,N,08424.0586,W,1,06,2.9,326.9,M,-30.8,M,,0000*67
$GPGGA,235000.000,3346.8778,N,08424.0586,W,1,06,2.9,326.9,M,-30.8,M,,0000*67
$GPGGA,235100.000,3346.8778,N,08424.0586,W,1,06,2.9,326.9,M,-30.8,M,,0000*67
$GPGGA,235200.000,3346.8778,N,08424.0586,W,1,06,2.9,326.9,M,-30.8,M,,0000*67
$GPGGA,235300.000,3346.8778,N,08424.0586,W,1,06,2.9,326.9,M,-30.8,M,,0000*67
$GPGGA,235400.000,3346.8778,N,08424.0586,W,1,06,2.9,326.9,M,-30.8,M,,0000*67
$GPGGA,235500.000,3346.8778,N,08424.0586,W,1,06,2.9,326.9,M,-30.8,M,,0000*67
$GPGGA,235600.000,3346.8778,N,08424.0586,W,1,06,2.9,326.9,M,-30.8,M,,0000*67
$GPGGA,235700.000,3346.8778,N,08424.0586,W,1,06,2.9,326.9,M,-30.8,M,,0000*67
$GPGGA,235800.000,3346.8778,N,08424.0586,W,1,06,2.9,326.9,M,-30.8,M,,0000*67
$GPGGA,235900.000,3346.8778,N,08424.0586,W,1,06,2.9,326.9,M,-30.8,M,,0000*67
$GPGGA,000000.000,3346.8778,N,08424.0586,W,1,06,2.9,326.9,M,-30.8,M,,0000*67
$GPGGA,000100.000,3346.8778,N,08424.0586,W,1,06,2.9,326.9,M,-30.8,M,,0000*67
$GPGGA,000200.000,3346.8778,N,08424.0586,W,1,06,2.9,326.9,M,-30.8,M,,0000*67
$GPGGA,000300.000,3346.8778,N,08424.0586,W,1,06,2.9,326.9,M,-30.8,M,,0000*67
$GPGGA,000400.000,3346.8778,N,08424.0586,W,1,06,2.9,326.9,M,-30.8,M,,0000*67
$GPGGA,000500.000,3346.8778,N,08424.0586,W,1,06,2.9,326.9,M,-30.8,M,,0000*67
$GPGGA,000600.000,3346.8778,N,08424.0586,W,1,06,2.9,326.9,M,-30.8,M,,0000*67
$GPGGA,000700.000,3346.8778,N,08424.0586,W,1,06,2.9,326.9,M,-30.8,M,,0000*67
$GPGGA,000800.000,3346.8778,N,08424.0586,W,1,06,2.9,326.9,M,-30.8,M,,0000*67
$GPGGA,000900.000,3346.8778,N,08424.0586,W,1,06,2.9,326.9,M,-30.8,M,,0000*67
$GPGGA,001000.000,3346.8778,N,08424.0586,W,1,06,2.9,326.9,M,-30.8,M,,0000*67
$GPGGA,001100.000,3346.8778,N,08424.0586,W,1,06,2.9,326.9,M,-30.8,M,,0000*67
$GPGGA,001200.000,3346.8778,N,08424.0586,W,1,06,2.9,326.9,M,-30.8,M,,0000*67
$GPGGA,001300.000,3346.8778,N,08424.0586,W,1,06,2.9,326.9,M,-30.8,M,,0000*67
$GPGGA,001400.000,3346.8778,N,08424.0586,W,1,06,2.9,326.9,M,-30.8,M,,0000*67
$GPGGA,001500.000,3346.8778,N,08424.0586,W,1,06,2.9,326.9,M,-30.8,M,,0000*67
$GPGGA,001600.000,3346.8778,N,08424.0586,W,1,06,2.9,326.9,M,-30.8,M,,0000*67
$GPGGA,001700.000,3346.8778,N,08424.0586,W,1,06,2.9,326.9,M,-30.8,M,,0000*67
$GPGGA,001800.000,3346.8778,N,08424.0586,W,1,06,2.9,326.9,M,-30.8,M,,0000*67
$GPGGA,001900.000,3346.8778,N,08424.0586,W,1,06,2.9,326.9,M,-30.8,M,,0000*67
$GPGGA,002000.000,3346.8778,N,08424.0586,W,1,06,2.9,326.9,M,-30.8,M,,0000*67
$GPGGA,002100.000,3346.8778,N,08424.0586,W,1,06,2.9,326.9,M,-30.8,M,,0000*67
$GPGGA,002200.000,3346.8778,N,08424.0586,W,1,06,2.9,326.9,M,-30.8,M,,0000*67
$GPGGA,002300.000,3346.8778,N,08424.0586,W,1,06,2.9,326.9,M,-30.8,M,,0000*67
$GPGGA,002400.000,3346.8778,N,08424.0586,W,1,06,2.9,326.9,M,-30.8,M,,0000*67
$GPGGA,002500.000,3346.8778,N,08424.0586,W,1,06,2.9,326.9,M,-30.8,M,,0000*67
$GPGGA,002600.000,3346.8778,N,08424.0586,W,1,06,2.9,326.9,M,-30.8,M,,0000*67
$GPGGA,002700.000,3346.8778,N,08424.0586,W,1,06,2.9,326.9,M,-30.8,M,,0000*67
$GPGGA,002800.000,3346.8778,N,08424.0586,W,1,06,2.9,326.9,M,-30.8,M,,0000*67
$GPGGA,002900.000,3346.8778,N,08424.0586,W,1,06,2.9,326.9,M,-30.8,M,,0000*67
$GPGGA,003000.000,3346.8778,N,08424.0586,W,1,06,2.9,326.9,M,-30.8,M,,0000*67
$GPGGA,003100.000,3346.8778,N,08424.0586,W,1,06,2.9,326.9,M,-30.8,M,,0000*67
$GPGGA,003200.000,3346.8778,N,08424.0586,W,1,06,2.9,326.9,M,-30.8,M,,0000*67
$GPGGA,003300.000,3346.8778,N,08424.0586,W,1,06,2.9,326.9,M,-30.8,M,,0000*67
$GPGGA,003400.000,3346.8778,N,08424.0586,W,1,06,2.9,326.9,M,-30.8,M,,0000*67
$GPGGA,003500.000,3346.8778,N,08424.0586,W,1,06,2.9,326.9,M,-30.8,M,,0000*67
$GPGGA,003600.000,3346.8778,N,08424.0586,W,1,06,2.9,326.9,M,-30.8,M,,0000*67
$GPGGA,003700.000,3346.8778,N,08424.0586,W,1,06,2.9,326.9,M,-30.8,M,,0000*67
$GPGGA,003800.000,3346.8778,N,08424.0586,W,1,06,2.9,326.9,M,-30.8,M,,0000*67
$GPGGA,003900.000,3346.8778,N,08424.0586,W,1,06,2.9,326.9,M,-30.8,M,,0000*67
$GPGGA,004000.000,3346.8778,N,08424.0586,W,1,06,2.9,326.9,M,-30.8,M,,0000*67
$GPGGA,004100.000,3346.8778,N,08424.0586,W,1,06,2.9,326.9,M,-30.8,M,,0000*67
$GPGGA,004200.000,3346.8778,N,08424.0586,W,1,06,2.9,326.9,M,-30.8,M,,0000*67
$GPGGA,004300.000,3346.8778,N,08424.0586,W,1,06,2.9,326.9,M,-30.8,M,,0000*67
$GPGGA,004400.000,3346.8778,N,08424.0586,W,1,06,2.9,326.9,M,-30.8,M,,0000*67
$GPGGA,004500.000,3346.8778,N,08424.0586,W,1,06,2.9,326.9,M,-30.8,M,,0000*67
$GPGGA,004600.000,3346.8778,N,08424.0586,W,1,06,2.9,326.9,M,-30.8,M,,0000*67
$GPGGA,004700.000,3346.8778,N,08424.0586,W,1,06,2.9,326.9,M,-30.8,M,,0000*67
$GPGGA,004800.000,3346.8778,N,08424.0586,W,1,06,2.9,326.9,M,-30.8,M,,0000*67
$GPGGA,004900.000,3346.8778,N,08424.0586,W,1,06,2.9,326.9,M,-30.8,M,,0000*67
$GPGGA,005000.000,3346.8778,N,08424.0586,W,1,06,2.9,326.9,M,-30.8,M,,0000*67
$GPGGA,005100.000,3346.8778,N,08424.0586,W,1,06,2.9,326.9,M,-30.8,M,,0000*67
$GPGGA,005200.000,3346.8778,N,08424.0586,W,1,06,2.9,326.9,M,-30.8,M,,0000*67
$GPGGA,005300.000,3346.8778,N,08424.0586,W,1,06,2.9,326.9,M,-30.8,M,,0000*67
$GPGGA,005400.000,3346.8778,N,08424.0586,W,1,06,2.9,326.9,M,-30.8,M,,0000*67
$GPGGA,005500.000,3346.8778,N,08424.0586,W,1,06,2.9,326.9,M,-30.8,M,,0000*67
$GPGGA,005600.000,3346.8778,N,08424.0586,W,1,06,2.9,326.9,M,-30.8,M,,0000*67
$GPGGA,005700.000,3346.8778,N,08424.0586,W,1,06,2.9,326.9,M,-30.8,M,,0000*67
$GPGGA,005800.000,3346.8778,N,08424.0586,W,1,06,2.9,326.9,M,-30.8,M,,0000*67
$GPGGA,005900.000,3346.8778,N,08424.0586,W,1,06,2.9,326.9,M,-30.8,M,,0000*67
$GPGGA,010000.000,3346.8778,N,08424.0586,W,1,06,2.9,326.9,M,-30.8,M,,0000*67
$GPGGA,010100.000,3346.8778,N,08424.0586,W,1,06,2.9,326.9,M,-30.8,M,,0000*67
$GPGGA,010200.000,3346.8778,N,08424.0586,W,1,06,2.9,326.9,M,-30.8,M,,0000*67
$GPGGA,010300.000,3346.8778,N,08424.0586,W,1,06,2.9,326.9,M,-30.8,M,,0000*67
$GPGGA,010400.000,3346.8778,N,08424.0586,W,1,06,2.9,326.9,M,-30.8,M,,0000*67
$GPGGA,010500.000,3346.8778,N,08424.0586,W,1,06,2.9,326.9,M,-30.8,M,,0000*67
$GPGGA,010600.000,3346.8778,N,08424.0586,W,1,06,2.9,326.9,M,-30.8,M,,0000*67
$GPGGA,010700.000,3346.8778,N,08424.0586,W,1,06,2.9,326.9,M,-30.8,M,,0000*67
$GPGGA,010800.000,3346.8778,N,08424.0586,W,1,06,2.9,326.9,M,-30.8,M,,0000*67
$GPGGA,010900.000,3346.8778,N,08424.0586,W,1,06,2.9,326.9,M,-30.8,M,,0000*67
$GPGGA,011000.000,3346.8778,N,08424.0586,W,1,06,2.9,326.9,M,-30.8,M,,0000*67
$GPGGA,011100.000,3346.8778,N,08424.0586,W,1,06,2.9,326.9,M,-30.8,M,,0000*67
$GPGGA,011200.000,3346.8778,N,08424.0586,W,1,06,2.9,326.9,M,-30.8,M,,0000*67
$GPGGA,011300.000,3346.8778,N,08424.0586,W,1,06,2.9,326.9,M,-30.8,M,,0000*67
$GPGGA,011400.000,3346.8778,N,08424.0586,W,1,06,2.9,326.9,M,-30.8,M,,0000*67
$GPGGA,011500.000,3346.8778,N,08424.0586,W,1,06,2.9,326.9,M,-30.8,M,,0000*67
$GPGGA,011600.000,3346.8778,N,08424.0586,W,1,06,2.9,326.9,M,-30.8,M,,0000*67
$GPGGA,011700.000,3346.8778,N,08424.0586,W,1,06,2.9,326.9,M,-30.8,M,,0000*67
$GPGGA,011800.000,3346.8778,N,08424.0586,W,1,06,2.9,326.9,M,-30.8,M,,0000*67
$GPGGA,011900.000,3346.8778,N,08424.0586,W,1,06,2.9,326.9,M,-30.8,M,,0000*67
$GPGGA,012000.000,3346.8778,N,08424.0586,W,1,06,2.9,326.9,M,-30.8,M,,0000*67
$GPGGA,012100.000,3346.8778,N,08424.0586,W,1,06,2.9,326.9,M,-30.8,M,,0000*67
$GPGGA,012200.000,3346.8778,N,08424.0586,W,1,06,2.9,326.9,M,-30.8,M,,0000*67
$GPGGA,012300.000,3346.8778,N,08424.0586,W,1,06,2.9,326.9,M,-30.8,M,,0000*67
$GPGGA,012400.000,3346.8778,N,08424.0586,W,1,06,2.9,326.9,M,-30.8,M,,0000*67
$GPGGA,012500.000,3346.8778,N,08424.0586,W,1,06,2.9,326.9,M,-30.8,M,,0000*67
$GPGGA,012600.000,3346.8778,N,08424.0586,W,1,06,2.9,326.9,M,-30.8,M,,0000*67
$GPGGA,012700.000,3346.8778,N,08424.0586,W,1,06,2.9,326.9,M,-30.8,M,,0000*67
$GPGGA,012800.000,3346.8778,N,08424.0586,W,1,06,2.9,326.9,M,-30.8,M,,0000*67
$GPGGA,012900.000,3346.8778,N,08424.0586,W,1,06,2.9,326.9,M,-30.8,M,,0000*67
$GPGGA,013000.000,3346.8778,N,08424.0586,W,1,06,2.9,326.9,M,-30.8,M,,0000*67
$GPGGA,013100.000,3346.8778,N,08424.0586,W,1,06,2.9,326.9,M,-30.8,M,,0000*67
$GPGGA,013200.000,3346.8778,N,08424.0586,W,1,06,2.9,326.9,M,-30.8,M,,0000*67
$GPGGA,013300.000,3346.8778,N,08424.0586,W,1,06,2.9,326.9,M,-30.8,M,,0000*67
$GPGGA,013400.000,3346.8778,N,08424.0586,W,1,06,2.9,326.9,M,-30.8,M,,0000*67
$GPGGA,013500.000,3346.8778,N,08424.0586,W,1,06,2.9,326.9,M,-30.8,M,,0000*67
$GPGGA,013600.000,3346.8778,N,08424.0586,W,1,06,2.9,326.9,M,-30.8,M,,0000*67
$GPGGA,013700.000,3346.8778,N,08424.0586,W,1,06,2.9,326.9,M,-30.8,M,,0000*67
$GPGGA,013800.000,3346.8778,N,08424.0586,W,1,06,2.9,326.9,M,-30.8,M,,0000*67
$GPGGA,013900.000,3346.8778,N,08424.0586,W,1,06,2.9,326.9,M,-30.8,M,,0000*67
$GPGGA,014000.000,3346.8778,N,08424.0586,W,1,06,2.9,326.9,M,-30.8,M,,0000*67
$GPGGA,014100.000,3346.8778,N,08424.0586,W,1,06,2.9,326.9,M,-30.8,M,,0000*67
$GPGGA,014200.000,3346.8778,N,08424.0586,W,1,06,2.9,326.9,M,-30.8,M,,0000*67
$GPGGA,014300.000,3346.8778,N,08424.0586,W,1,06,2.9,326.9,M,-30.8,M,,0000*67
$GPGGA,014400.000,3346.8778,N,08424.0586,W,1,06,2.9,326.9,M,-30.8,M,,0000*67
$GPGGA,014500.000,3346.8778,N,08424.0586,W,1,06,2.9,326.9,M,-30.8,M,,0000*67
$GPGGA,014600.000,3346.8778,N,08424.0586,W,1,06,2.9,326.9,M,-30.8,M,,0000*67
$GPGGA,014700.000,3346.8778,N,08424.0586,W,1,06,2.9,326.9,M,-30.8,M,,0000*67
$GPGGA,014800.000,3346.8778,N,08424.0586,W,1,06,2.9,326.9,M,-30.8,M,,0000*67
$GPGGA,014900.000,3346.8778,N,08424.0586,W,1,06,2.9,326.9,M,-30.8,M,,0000*67
$GPGGA,015000.000,3346.8778,N,08424.0586,W,1,06,2.9,326.9,M,-30.8,M,,0000*67
$GPGGA,015100.000,3346.8778,N,08424.0586,W,1,06,2.9,326.9,M,-30.8,M,,0000*67
$GPGGA,015200.000,3346.8778,N,08424.0586,W,1,06,2.9,326.9,M,-30.8,M,,0000*67
$GPGGA,015300.000,3346.8778,N,08424.0586,W,1,06,2.9,326.9,M,-30.8,M,,0000*67
$GPGGA,015400.000,3346.8778,N,08424.0586,W,1,06,2.9,326.9,M,-30.8,M,,0000*67
$GPGGA,015500.000,3346.8778,N,08424.0586,W,1,06,2.9,326.9,M,-30.8,M,,0000*67
$GPGGA,015600.000,3346.8778,N,08424.0586,W,1,06,2.9,326.9,M,-30.8,M,,0000*67
$GPGGA,015700.000,3346.8778,N,08424.0586,W,1,06,2.9,326.9,M,-30.8,M,,0000*67
$GPGGA,015800.000,3346.8778,N,08424.0586,W,1,06,2.9,326.9,M,-30.8,M,,0000*67
$GPGGA,015900.000,3346.8778,N,08424.0586,W,1,06,2.9,326.9,M,-30.8,M,,0000*67
$GPGGA,020000.000,3346.8778,N,08424.0586,W,1,06,2.9,326.9,M,-30.8,M,,0000*67
$GPGGA,020100.000,3346.8778,N,08424.0586,W,1,06,2.9,326.9,M,-30.8,M,,0000*67
$GPGGA,020200.000,3346.8778,N,08424.0586,W,1,06,2.9,326.9,M,-30.8,M,,0000*67
$GPGGA,020300.000,3346.8778,N,08424.0586,W,1,06,2.9,326.9,M,-30.8,M,,0000*67
$GPGGA,020400.000,3346.8778,N,08424.0586,W,1,06,2.9,326.9,M,-30.8,M,,0000*67
$GPGGA,020500.000,3346.8778,N,08424.0586,W,1,06,2.9,326.9,M,-30.8,M,,0000*67
$GPGGA,020600.000,3346.8778,N,08424.0586,W,1,06,2.9,326.9,M,-30.8,M,,0000*67
$GPGGA,020700.000,3346.8778,N,08424.0586,W,1,06,2.9,326.9,M,-30.8,M,,0000*67
$GPGGA,020800.000,3346.8778,N,08424.0586,W,1,06,2.9,326.9,M,-30.8,M,,0000*67
$GPGGA,020900.000,3346.8778,N,08424.0586,W,1,06,2.9,326.9,M,-30.8,M,,0000*67
$GPGGA,021000.000,3346.8778,N,08424.0586,W,1,06,2.9,326.9,M,-30.8,M,,0000*67
$GPGGA,021100.000,3346.8778,N,08424.0586,W,1,06,2.9,326.9,M,-30.8,M,,0000*67
$GPGGA,021200.000,3346.8778,N,08424.0586,W,1,06,2.9,326.9,M,-30.8,M,,0000*67
$GPGGA,021300.000,3346.8778,N,08424.0586,W,1,06,2.9,326.9,M,-30.8,M,,0000*67
$GPGGA,021400.000,3346.8778,N,08424.0586,W,1,06,2.9,326.9,M,-30.8,M,,0000*67
$GPGGA,021500.000,3346.8778,N,08424.0586,W,1,06,2.9,326.9,M,-30.8,M,,0000*67
$GPGGA,021600.000,3346.8778,N,08424.0586,W,1,06,2.9,326.9,M,-30.8,M,,0000*67
$GPGGA,021700.000,3346.8778,N,08424.0586,W,1,06,2.9,326.9,M,-30.8,M,,0000*67
$GPGGA,021800.000,3346.8778,N,08424.0586,W,1,06,2.9,326.9,M,-30.8,M,,0000*67
$GPGGA,021900.000,3346.8778,N,08424.0586,W,1,06,2.9,326.9,M,-30.8,M,,0000*67
$GPGGA,022000.000,3346.8778,N,08424.0586,W,1,06,2.9,326.9,M,-30.8,M,,0000*67
$GPGGA,022100.000,3346.8778,N,08424.0586,W,1,06,2.9,326.9,M,-30.8,M,,0000*67
$GPGGA,022200.000,3346.8778,N,08424.0586,W,1,06,2.9,326.9,M,-30.8,M,,0000*67
$GPGGA,022300.000,3346.8778,N,08424.0586,W,1,06,2.9,326.9,M,-30.8,M,,0000*67
$GPGGA,022400.000,3346.8778,N,08424.0586,W,1,06,2.9,326.9,M,-30.8,M,,0000*67
$GPGGA,022500.000,3346.8778,N,08424.0586,W,1,06,2.9,326.9,M,-30.8,M,,0000*67
$GPGGA,022600.000,3346.8778,N,08424.0586,W,1,06,2.9,326.9,M,-30.8,M,,0000*67
$GPGGA,022700.000,3346.8778,N,08424.0586,W,1,06,2.9,326.9,M,-30.8,M,,0000*67
$GPGGA,022800.000,3346.8778,N,08424.0586,W,1,06,2.9,326.9,M,-30.8,M,,0000*67
$GPGGA,022900.000,3346.8778,N,08424.0586,W,1,06,2.9,326.9,M,-30.8,M,,0000*67
$GPGGA,023000.000,3346.8778,N,08424.0586,W,1,06,2.9,326.9,M,-30.8,M,,0000*67
$GPGGA,023100.000,3346.8778,N,08424.0586,W,1,06,2.9,326.9,M,-30.8,M,,0000*67
$GPGGA,023200.000,3346.8778,N,08424.0586,W,1,06,2.9,326.9,M,-30.8,M,,0000*67
$GPGGA,023300.000,3346.8778,N,08424.0586,W,1,06,2.9,326.9,M,-30.8,M,,0000*67
$GPGGA,023400.000,3346.8778,N,08424.0586,W,1,06,2.9,326.9,M,-30.8,M,,0000*67
$GPGGA,023500.000,3346.8778,N,08424.0586,W,1,06,2.9,326.9,M,-30.8,M,,0000*67
$GPGGA,023600.000,3346.8778,N,08424.0586,W,1,06,2.9,326.9,M,-30.8,M,,0000*67
$GPGGA,023700.000,3346.8778,N,08424.0586,W,1,06,2.9,326.9,M,-30.8,M,,0000*67
$GPGGA,023800.000,3346.8778,N,08424.0586,W,1,06,2.9,326.9,M,-30.8,M,,0000*67
$GPGGA,023900.000,3346.8778,N,08424.0586,W,1,06,2.9,326.9,M,-30.8,M,,0000*67
$GPGGA,024000.000,3346.8778,N,08424.0586,W,1,06,2.9,326.9,M,-30.8,M,,0000*67
$GPGGA,024100.000,3346.8778,N,08424.0586,W,1,06,2.9,326.9,M,-30.8,M,,0000*67
$GPGGA,024200.000,3346.8778,N,08424.0586,W,1,06,2.9,326.9,M,-30.8,M,,0000*67
$GPGGA,024300.000,3346.8778,N,08424.0586,W,1,06,2.9,326.9,M,-30.8,M,,0000*67
$GPGGA,024400.000,3346.8778,N,08424.0586,W,1,06,2.9,326.9,M,-30.8,M,,0000*67
$GPGGA,024500.000,3346.8778,N,08424.0586,W,1,06,2.9,326.9,M,-30.8,M,,0000*67
$GPGGA,024600.000,3346.8778,N,08424.0586,W,1,06,2.9,326.9,M,-30.8,M,,0000*67
$GPGGA,024700.000,3346.8778,N,08424.0586,W,1,06,2.9,326.9,M,-30.8,M,,0000*67
$GPGGA,024800.000,3346.8778,N,08424.0586,W,1,06,2.9,326.9,M,-30.8,M,,0000*67
$GPGGA,024900.000,3346.8778,N,08424.0586,W,1,06,2.9,326.9,M,-30.8,M,,0000*67
$GPGGA,025000.000,3346.8778,N,08424.0586,W,1,06,2.9,326.9,M,-30.8,M,,0000*67
$GPGGA,025100.000,3346.8778,N,08424.0586,W,1,06,2.9,326.9,M,-30.8,M,,0000*67
$GPGGA,025200.000,3346.8778,N,08424.0586,W,1,06,2.9,326.9,M,-30.8,M,,0000*67
$GPGGA,025300.000,3346.8778,N,08424.0586,W,1,06,2.9,326.9,M,-30.8,M,,0000*67
$GPGGA,025400.000,3346.8778,N,08424.0586,W,1,06,2.9,326.9,M,-30.8,M,,0000*67
$GPGGA,025500.000,3346.8778,N,08424.0586,W,1,06,2.9,326.9,M,-30.8,M,,0000*67
$GPGGA,025600.000,3346.8778,N,08424.0586,W,1,06,2.9,326.9,M,-30.8,M,,0000*67
$GPGGA,025700.000,3346.8778,N,08424.0586,W,1,06,2.9,326.9,M,-30.8,M,,0000*67
$GPGGA,025800.000,3346.8778,N,08424.0586,W,1,06,2.9,326.9,M,-30.8,M,,0000*67
$GPGGA,025900.000,3346.8778,N,08424.0586,W,1,06,2.9,326.9,M,-30.8,M,,0000*67
$GPGGA,030000.000,3346.8778,N,08424.0586,W,1,06,2.9,326.9,M,-30.8,M,,0000*67
$GPGGA,030100.000,3346.8778,N,08424.0586,W,1,06,2.9,326.9,M,-30.8,M,,0000*67
$GPGGA,030200.000,3346.8778,N,08424.0586,W,1,06,2.9,326.9,M,-30.8,M,,0000*67
$GPGGA,030300.000,3346.8778,N,08424.0586,W,1,06,2.9,326.9,M,-30.8,M,,0000*67
$GPGGA,030400.000,3346.8778,N,08424.0586,W,1,06,2.9,326.9,M,-30.8,M,,0000*67
$GPGGA,030500.000,3346.8778,N,08424.0586,W,1,06,2.9,326.9,M,-30.8,M,,0000*67
$GPGGA,030600.000,3346.8778,N,08424.0586,W,1,06,2.9,326.9,M,-30.8,M,,0000*67
$GPGGA,030700.000,3346.8778,N,08424.0586,W,1,06,2.9,326.9,M,-30.8,M,,0000*67
$GPGGA,030800.000,3346.8778,N,08424.0586,W,1,06,2.9,326.9,M,-30.8,M,,0000*67
$GPGGA,030900.000,3346.8778,N,08424.0586,W,1,06,2.9,326.9,M,-30.8,M,,0000*67
$GPGGA,031000.000,3346.8778,N,08424.0586,W,1,06,2.9,326.9,M,-30.8,M,,0000*67
$GPGGA,031100.000,3346.8778,N,08424.0586,W,1,06,2.9,326.9,M,-30.8,M,,0000*67
$GPGGA,031200.000,3346.8778,N,08424.0586,W,1,06,2.9,326.9,M,-30.8,M,,0000*67
$GPGGA,031300.000,3346.8778,N,08424.0586,W,1,06,2.9,326.9,M,-30.8,M,,0000*67
$GPGGA,031400.000,3346.8778,N,08424.0586,W,1,06,2.9,326.9,M,-30.8,M,,0000*67
$GPGGA,031500.000,3346.8778,N,08424.0586,W,1,06,2.9,326.9,M,-30.8,M,,0000*67
$GPGGA,031600.000,3346.8778,N,08424.0586,W,1,06,2.9,326.9,M,-30.8,M,,0000*67
$GPGGA,031700.000,3346.8778,N,08424.0586,W,1,06,2.9,326.9,M,-30.8,M,,0000*67
$GPGGA,031800.000,3346.8778,N,08424.0586,W,1,06,2.9,326.9,M,-30.8,M,,0000*67
$GPGGA,031900.000,3346.8778,N,08424.0586,W,1,06,2.9,326.9,M,-30.8,M,,0000*67
$GPGGA,032000.000,3346.8778,N,08424.0586,W,1,06,2.9,326.9,M,-30.8,M,,0000*67
$GPGGA,032100.000,3346.8778,N,08424.0586,W,1,06,2.9,326.9,M,-30.8,M,,0000*67
$GPGGA,032200.000,3346.8778,N,08424.0586,W,1,06,2.9,326.9,M,-30.8,M,,0000*67
$GPGGA,032300.000,3346.8778,N,08424.0586,W,1,06,2.9,326.9,M,-30.8,M,,0000*67
$GPGGA,032400.000,3346.8778,N,08424.0586,W,1,06,2.9,326.9,M,-30.8,M,,0000*67
$GPGGA,032500.000,3346.8778,N,08424.0586,W,1,06,2.9,326.9,M,-30.8,M,,0000*67
$GPGGA,032600.000,3346.8778,N,08424.0586,W,1,06,2.9,326.9,M,-30.8,M,,0000*67
$GPGGA,032700.000,3346.8778,N,08424.0586,W,1,06,2.9,326.9,M,-30.8,M,,0000*67
$GPGGA,032800.000,3346.8778,N,08424.0586,W,1,06,2.9,326.9,M,-30.8,M,,0000*67
$GPGGA,032900.000,3346.8778,N,08424.0586,W,1,06,2.9,326.9,M,-30.8,M,,0000*67
$GPGGA,033000.000,3346.8778,N,08424.0586,W,1,06,2.9,326.9,M,-30.8,M,,0000*67
$GPGGA,033100.000,3346.8778,N,08424.0586,W,1,06,2.9,326.9,M,-30.8,M,,0000*67
$GPGGA,033200.000,3346.8778,N,08424.0586,W,1,06,2.9,326.9,M,-30.8,M,,0000*67
$GPGGA,033300.000,3346.8778,N,08424.0586,W,1,06,2.9,326.9,M,-30.8,M,,0000*67
$GPGGA,033400.000,3346.8778,N,08424.0586,W,1,06,2.9,326.9,M,-30.8,M,,0000*67
$GPGGA,033500.000,3346.8778,N,08424.0586,W,1,06,2.9,326.9,M,-30.8,M,,0000*67
$GPGGA,033600.000,3346.8778,N,08424.0586,W,1,06,2.9,326.9,M,-30.8,M,,0000*67
$GPGGA,033700.000,3346.8778,N,08424.0586,W,1,06,2.9,326.9,M,-30.8,M,,0000*67
$GPGGA,033800.000,3346.8778,N,08424.0586,W,1,06,2.9,326.9,M,-30.8,M,,0000*67
$GPGGA,033900.000,3346.8778,N,08424.0586,W,1,06,2.9,326.9,M,-30.8,M,,0000*67
$GPGGA,034000.000,3346.8778,N,08424.0586,W,1,06,2.9,326.9,M,-30.8,M,,0000*67
$GPGGA,034100.000,3346.8778,N,08424.0586,W,1,06,2.9,326.9,M,-30.8,M,,0000*67
$GPGGA,034200.000,3346.8778,N,08424.0586,W,1,06,2.9,326.9,M,-30.8,M,,0000*67
$GPGGA,034300.000,3346.8778,N,08424.0586,W,1,06,2.9,326.9,M,-30.8,M,,0000*67
$GPGGA,034400.000,3346.8778,N,08424.0586,W,1,06,2.9,326.9,M,-30.8,M,,0000*67
$GPGGA,034500.000,3346.8778,N,08424.0586,W,1,06,2.9,326.9,M,-30.8,M,,0000*67
$GPGGA,034600.000,3346.8778,N,08424.0586,W,1,06,2.9,326.9,M,-30.8,M,,0000*67
$GPGGA,034700.000,3346.8778,N,08424.0586,W,1,06,2.9,326.9,M,-30.8,M,,0000*67
$GPGGA,034800.000,3346.8778,N,08424.0586,W,1,06,2.9,326.9,M,-30.8,M,,0000*67
$GPGGA,034900.000,3346.8778,N,08424.0586,W,1,06,2.9,326.9,M,-30.8,M,,0000*67
$GPGGA,035000.000,3346.8778,N,08424.0586,W,1,06,2.9,326.9,M,-30.8,M,,0000*67
$GPGGA,035100.000,3346.8778,N,08424.0586,W,1,06,2.9,326.9,M,-30.8,M,,0000*67
$GPGGA,035200.000,3346.8778,N,08424.0586,W,1,06,2.9,326.9,M,-30.8,M,,0000*67
$GPGGA,035300.000,3346.8778,N,08424.0586,W,1,06,2.9,326.9,M,-30.8,M,,0000*67
$GPGGA,035400.000,3346.8778,N,08424.0586,W,1,06,2.9,326.9,M,-30.8,M,,0000*67
$GPGGA,035500.000,3346.8778,N,08424.0586,W,1,06,2.9,326.9,M,-30.8,M,,0000*67
$GPGGA,035600.000,3346.8778,N,08424.0586,W,1,06,2.9,326.9,M,-30.8,M,,0000*67
$GPGGA,035700.000,3346.8778,N,08424.0586,W,1,06,2.9,326.9,M,-30.8,M,,0000*67
$GPGGA,035800.000,3346.8778,N,08424.0586,W,1,06,2.9,326.9,M,-30.8,M,,0000*67
$GPGGA,035900.000,3346.8778,N,08424.0586,W,1,06,2.9,326.9,M,-30.8,M,,0000*67
$GPGGA,040000.000,3346.8778,N,08424.0586,W,1,06,2.9,326.9,M,-30.8,M,,0000*67
$GPGGA,040100.000,3346.8778,N,08424.0586,W,1,06,2.9,326.9,M,-30.8,M,,0000*67
$GPGGA,040200.000,3346.8778,N,08424.0586,W,1,06,2.9,326.9,M,-30.8,M,,0000*67
$GPGGA,040300.000,3346.8778,N,08424.0586,W,1,06,2.9,326.9,M,-30.8,M,,0000*67
$GPGGA,040400.000,3346.8778,N,08424.0586,W,1,06,2.9,326.9,M,-30.8,M,,0000*67
$GPGGA,040500.000,3346.8778,N,08424.0586,W,1,06,2.9,326.9,M,-30.8,M,,0000*67
$GPGGA,040600.000,3346.8778,N,08424.0586,W,1,06,2.9,326.9,M,-30.8,M,,0000*67
$GPGGA,040700.000,3346.8778,N,08424.0586,W,1,06,2.9,326.9,M,-30.8,M,,0000*67
$GPGGA,040800.000,3346.8778,N,08424.0586,W,1,06,2.9,326.9,M,-30.8,M,,0000*67
$GPGGA,040900.000,3346.8778,N,08424.0586,W,1,06,2.9,326.9,M,-30.8,M,,0000*67
$GPGGA,041000.000,3346.8778,N,08424.0586,W,1,06,2.9,326.9,M,-30.8,M,,0000*67
$GPGGA,041100.000,3346.8778,N,08424.0586,W,1,06,2.9,326.9,M,-30.8,M,,0000*67
$GPGGA,041200.000,3346.8778,N,08424.0586,W,1,06,2.9,326.9,M,-30.8,M,,0000*67
$GPGGA,041300.000,3346.8778,N,08424.0586,W,1,06,2.9,326.9,M,-30.8,M,,0000*67
$GPGGA,041400.000,3346.8778,N,08424.0586,W,1,06,2.9,326.9,M,-30.8,M,,0000*67
$GPGGA,041500.000,3346.8778,N,08424.0586,W,1,06,2.9,326.9,M,-30.8,M,,0000*67
$GPGGA,041600.000,3346.8778,N,08424.0586,W,1,06,2.9,326.9,M,-30.8,M,,0000*67
$GPGGA,041700.000,3346.8778,N,08424.0586,W,1,06,2.9,326.9,M,-30.8,M,,0000*67
$GPGGA,041800.000,3346.8778,N,08424.0586,W,1,06,2.9,326.9,M,-30.8,M,,0000*67
$GPGGA,041900.000,3346.8778,N,08424.0586,W,1,06,2.9,326.9,M,-30.8,M,,0000*67
$GPGGA,042000.000,3346.8778,N,08424.0586,W,1,06,2.9,326.9,M,-30.8,M,,0000*67
$GPGGA,042100.000,3346.8778,N,08424.0586,W,1,06,2.9,326.9,M,-30.8,M,,0000*67
$GPGGA,042200.000,3346.8778,N,08424.0586,W,1,06,2.9,326.9,M,-30.8,M,,0000*67
$GPGGA,042300.000,3346.8778,N,08424.0586,W,1,06,2.9,326.9,M,-30.8,M,,0000*67
$GPGGA,042400.000,3346.8778,N,08424.0586,W,1,06,2.9,326.9,M,-30.8,M,,0000*67
$GPGGA,042500.000,3346.8778,N,08424.0586,W,1,06,2.9,326.9,M,-30.8,M,,0000*67
$GPGGA,042600.000,3346.8778,N,08424.0586,W,1,06,2.9,326.9,M,-30.8,M,,0000*67
$GPGGA,042700.000,3346.8778,N,08424.0586,W,1,06,2.9,326.9,M,-30.8,M,,0000*67
$GPGGA,042800.000,3346.8778,N,08424.0586,W,1,06,2.9,326.9,M,-30.8,M,,0000*67
$GPGGA,042900.000,3346.8778,N,08424.0586,W,1,06,2.9,326.9,M,-30.8,M,,0000*67
$GPGGA,043000.000,3346.8778,N,08424.0586,W,1,06,2.9,326.9,M,-30.8,M,,0000*67
$GPGGA,043100.000,3346.8778,N,08424.0586,W,1,06,2.9,326.9,M,-30.8,M,,0000*67
$GPGGA,043200.000,3346.8778,N,08424.0586,W,1,06,2.9,326.9,M,-30.8,M,,0000*67
$GPGGA,043300.000,3346.8778,N,08424.0586,W,1,06,2.9,326.9,M,-30.8,M,,0000*67
$GPGGA,043400.000,3346.8778,N,08424.0586,W,1,06,2.9,326.9,M,-30.8,M,,0000*67
$GPGGA,043500.000,3346.8778,N,08424.0586,W,1,06,2.9,326.9,M,-30.8,M,,0000*67
$GPGGA,043600.000,3346.8778,N,08424.0586,W,1,06,2.9,326.9,M,-30.8,M,,0000*67
$GPGGA,043700.000,3346.8778,N,08424.0586,W,1,06,2.9,326.9,M,-30.8,M,,0000*67
$GPGGA,043800.000,3346.8778,N,08424.0586,W,1,06,2.9,326.9,M,-30.8,M,,0000*67
$GPGGA,043900.000,3346.8778,N,08424.0586,W,1,06,2.9,326.9,M,-30.8,M,,0000*67
$GPGGA,044000.000,3346.8778,N,08424.0586,W,1,06,2.9,326.9,M,-30.8,M,,0000*67
$GPGGA,044100.000,3346.8778,N,08424.0586,W,1,06,2.9,326.9,M,-30.8,M,,0000*67
$GPGGA,044200.000,3346.8778,N,08424.0586,W,1,06,2.9,326.9,M,-30.8,M,,0000*67
$GPGGA,044300.000,3346.8778,N,08424.0586,W,1,06,2.9,326.9,M,-30.8,M,,0000*67
$GPGGA,044400.000,3346.8778,N,08424.0586,W,1,06,2.9,326.9,M,-30.8,M,,0000*67
$GPGGA,044500.000,3346.8778,N,08424.0586,W,1,06,2.9,326.9,M,-30.8,M,,0000*67
$GPGGA,044600.000,3346.8778,N,08424.0586,W,1,06,2.9,326.9,M,-30.8,M,,0000*67
$GPGGA,044700.000,3346.8778,N,08424.0586,W,1,06,2.9,326.9,M,-30.8,M,,0000*67
$GPGGA,044800.000,3346.8778,N,08424.0586,W,1,06,2.9,326.9,M,-30.8,M,,0000*67
$GPGGA,044900.000,3346.8778,N,08424.0586,W,1,06,2.9,326.9,M,-30.8,M,,0000*67
$GPGGA,045000.000,3346.8778,N,08424.0586,W,1,06,2.9,326.9,M,-30.8,M,,0000*67
$GPGGA,045100.000,3346.8778,N,08424.0586,W,1,06,2.9,326.9,M,-30.8,M,,0000*67
$GPGGA,045200.000,3346.8778,N,08424.0586,W,1,06,2.9,326.9,M,-30.8,M,,0000*67
$GPGGA,045300.000,3346.8778,N,08424.0586,W,1,06,2.9,326.9,M,-30.8,M,,0000*67
$GPGGA,045400.000,3346.8778,N,08424.0586,W,1,06,2.9,326.9,M,-30.8,M,,0000*67
$GPGGA,045500.000,3346.8778,N,08424.0586,W,1,06,2.9,326.9,M,-30.8,M,,0000*67
$GPGGA,045600.000,3346.8778,N,08424.0586,W,1,06,2.9,326.9,M,-30.8,M,,0000*67
$GPGGA,045700.000,3346.8778,N,08424.0586,W,1,06,2.9,326.9,M,-30.8,M,,0000*67
$GPGGA,045800.000,3346.8778,N,08424.0586,W,1,06,2.9,326.9,M,-30.8,M,,0000*67
$GPGGA,045900.000,3346.8778,N,08424.0586,W,1,06,2.9,326.9,M,-30.8,M,,0000*67
$GPGGA,050000.000,3346.8778,N,08424.0586,W,1,06,2.9,326.9,M,-30.8,M,,0000*67
$GPGGA,050100.000,3346.8778,N,08424.0586,W,1,06,2.9,326.9,M,-30.8,M,,0000*67
$GPGGA,050200.000,3346.8778,N,08424.0586,W,1,06,2.9,326.9,M,-30.8,M,,0000*67
$GPGGA,050300.000,3346.8778,N,08424.0586,W,1,06,2.9,326.9,M,-30.8,M,,0000*67
$GPGGA,050400.000,3346.8778,N,08424.0586,W,1,06,2.9,326.9,M,-30.8,M,,0000*67
$GPGGA,050500.000,3346.8778,N,08424.0586,W,1,06,2.9,326.9,M,-30.8,M,,0000*67
$GPGGA,050600.000,3346.8778,N,08424.0586,W,1,06,2.9,326.9,M,-30.8,M,,0000*67
$GPGGA,050700.000,3346.8778,N,08424.0586,W,1,06,2.9,326.9,M,-30.8,M,,0000*67
$GPGGA,050800.000,3346.8778,N,08424.0586,W,1,06,2.9,326.9,M,-30.8,M,,0000*67
$GPGGA,050900.000,3346.8778,N,08424.0586,W,1,06,2.9,326.9,M,-30.8,M,,0000*67
$GPGGA,051000.000,3346.8778,N,08424.0586,W,1,06,2.9,326.9,M,-30.8,M,,0000*67
$GPGGA,051100.000,3346.8778,N,08424.0586,W,1,06,2.9,326.9,M,-30.8,M,,0000*67
$GPGGA,051200.000,3346.8778,N,08424.0586,W,1,06,2.9,326.9,M,-30.8,M,,0000*67
$GPGGA,051300.000,3346.8778,N,08424.0586,W,1,06,2.9,326.9,M,-30.8,M,,0000*67
$GPGGA,051400.000,3346.8778,N,08424.0586,W,1,06,2.9,326.9,M,-30.8,M,,0000*67
$GPGGA,051500.000,3346.8778,N,08424.0586,W,1,06,2.9,326.9,M,-30.8,M,,0000*67
$GPGGA,051600.000,3346.8778,N,08424.0586,W,1,06,2.9,326.9,M,-30.8,M,,0000*67
$GPGGA,051700.000,3346.8778,N,08424.0586,W,1,06,2.9,326.9,M,-30.8,M,,0000*67
$GPGGA,051800.000,3346.8778,N,08424.0586,W,1,06,2.9,326.9,M,-30.8,M,,0000*67
$GPGGA,051900.000,3346.8778,N,08424.0586,W,1,06,2.9,326.9,M,-30.8,M,,0000*67
$GPGGA,052000.000,3346.8778,N,08424.0586,W,1,06,2.9,326.9,M,-30.8,M,,0000*67
$GPGGA,052100.000,3346.8778,N,08424.0586,W,1,06,2.9,326.9,M,-30.8,M,,0000*67
$GPGGA,052200.000,3346.8778,N,08424.0586,W,1,06,2.9,326.9,M,-30.8,M,,0000*67
$GPGGA,052300.000,3346.8778,N,08424.0586,W,1,06,2.9,326.9,M,-30.8,M,,0000*67
$GPGGA,052400.000,3346.8778,N,08424.0586,W,1,06,2.9,326.9,M,-30.8,M,,0000*67
$GPGGA,052500.000,3346.8778,N,08424.0586,W,1,06,2.9,326.9,M,-30.8,M,,0000*67
$GPGGA,052600.000,3346.8778,N,08424.0586,W,1,06,2.9,326.9,M,-30.8,M,,0000*67
$GPGGA,052700.000,3346.8778,N,08424.0586,W,1,06,2.9,326.9,M,-30.8,M,,0000*67
$GPGGA,052800.000,3346.8778,N,08424.0586,W,1,06,2.9,326.9,M,-30.8,M,,0000*67
$GPGGA,052900.000,3346.8778,N,08424.0586,W,1,06,2.9,326.9,M,-30.8,M,,0000*67
$GPGGA,053000.000,3346.8778,N,08424.0586,W,1,06,2.9,326.9,M,-30.8,M,,0000*67
$GPGGA,053100.000,3346.8778,N,08424.0586,W,1,06,2.9,326.9,M,-30.8,M,,0000*67
$GPGGA,053200.000,3346.8778,N,08424.0586,W,1,06,2.9,326.9,M,-30.8,M,,0000*67
$GPGGA,053300.000,3346.8778,N,08424.0586,W,1,06,2.9,326.9,M,-30.8,M,,0000*67
$GPGGA,053400.000,3346.8778,N,08424.0586,W,1,06,2.9,326.9,M,-30.8,M,,0000*67
$GPGGA,053500.000,3346.8778,N,08424.0586,W,1,06,2.9,326.9,M,-30.8,M,,0000*67
$GPGGA,053600.000,3346.8778,N,08424.0586,W,1,06,2.9,326.9,M,-30.8,M,,0000*67
$GPGGA,053700.000,3346.8778,N,08424.0586,W,1,06,2.9,326.9,M,-30.8,M,,0000*67
$GPGGA,053800.000,3346.8778,N,08424.0586,W,1,06,2.9,326.9,M,-30.8,M,,0000*67
$GPGGA,053900.000,3346.8778,N,08424.0586,W,1,06,2.9,326.9,M,-30.8,M,,0000*67
$GPGGA,054000.000,3346.8778,N,08424.0586,W,1,06,2.9,326.9,M,-30.8,M,,0000*67
$GPGGA,054100.000,3346.8778,N,08424.0586,W,1,06,2.9,326.9,M,-30.8,M,,0000*67
$GPGGA,054200.000,3346.8778,N,08424.0586,W,1,06,2.9,326.9,M,-30.8,M,,0000*67
$GPGGA,054300.000,3346.8778,N,08424.0586,W,1,06,2.9,326.9,M,-30.8,M,,0000*67
$GPGGA,054400.000,3346.8778,N,08424.0586,W,1,06,2.9,326.9,M,-30.8,M,,0000*67
$GPGGA,054500.000,3346.8778,N,08424.0586,W,1,06,2.9,326.9,M,-30.8,M,,0000*67
$GPGGA,054600.000,3346.8778,N,08424.0586,W,1,06,2.9,326.9,M,-30.8,M,,0000*67
$GPGGA,054700.000,3346.8778,N,08424.0586,W,1,06,2.9,326.9,M,-30.8,M,,0000*67
$GPGGA,054800.000,3346.8778,N,08424.0586,W,1,06,2.9,326.9,M,-30.8,M,,0000*67
$GPGGA,054900.000,3346.8778,N,08424.0586,W,1,06,2.9,326.9,M,-30.8,M,,0000*67
$GPGGA,055000.000,3346.8778,N,08424.0586,W,1,06,2.9,326.9,M,-30.8,M,,0000*67
$GPGGA,055100.000,3346.8778,N,08424.0586,W,1,06,2.9,326.9,M,-30.8,M,,0000*67
$GPGGA,055200.000,3346.8778,N,08424.0586,W,1,06,2.9,326.9,M,-30.8,M,,0000*67
$GPGGA,055300.000,3346.8778,N,08424.0586,W,1,06,2.9,326.9,M,-30.8,M,,0000*67
$GPGGA,055400.000,3346.8778,N,08424.0586,W,1,06,2.9,326.9,M,-30.8,M,,0000*67
$GPGGA,055500.000,3346.8778,N,08424.0586,W,1,06,2.9,326.9,M,-30.8,M,,0000*67
$GPGGA,055600.000,3346.8778,N,08424.0586,W,1,06,2.9,326.9,M,-30.8,M,,0000*67
$GPGGA,055700.000,3346.8778,N,08424.0586,W,1,06,2.9,326.9,M,-30.8,M,,0000*67
$GPGGA,055800.000,3346.8778,N,08424.0586,W,1,06,2.9,326.9,M,-30.8,M,,0000*67
$GPGGA,055900.000,3346.8778,N,08424.0586,W,1,06,2.9,326.9,M,-30.8,M,,0000*67
$GPGGA,060000.000,3346.8778,N,08424.0586,W,1,06,2.9,326.9,M,-30.8,M,,0000*67
$GPGGA,060100.000,3346.8778,N,08424.0586,W,1,06,2.9,326.9,M,-30.8,M,,0000*67
$GPGGA,060200.000,3346.8778,N,08424.0586,W,1,06,2.9,326.9,M,-30.8,M,,0000*67
$GPGGA,060300.000,3346.8778,N,08424.0586,W,1,06,2.9,326.9,M,-30.8,M,,0000*67
$GPGGA,060400.000,3346.8778,N,08424.0586,W,1,06,2.9,326.9,M,-30.8,M,,0000*67
$GPGGA,060500.000,3346.8778,N,08424.0586,W,1,06,2.9,326.9,M,-30.8,M,,0000*67
$GPGGA,060600.000,3346.8778,N,08424.0586,W,1,06,2.9,326.9,M,-30.8,M,,0000*67
$GPGGA,060700.000,3346.8778,N,08424.0586,W,1,06,2.9,326.9,M,-30.8,M,,0000*67
$GPGGA,060800.000,3346.8778,N,08424.0586,W,1,06,2.9,326.9,M,-30.8,M,,0000*67
$GPGGA,060900.000,3346.8778,N,08424.0586,W,1,06,2.9,326.9,M,-30.8,M,,0000*67
$GPGGA,061000.000,3346.8778,N,08424.0586,W,1,06,2.9,326.9,M,-30.8,M,,0000*67
$GPGGA,061100.000,3346.8778,N,08424.0586,W,1,06,2.9,326.9,M,-30.8,M,,0000*67
$GPGGA,061200.000,3346.8778,N,08424.0586,W,1,06,2.9,326.9,M,-30.8,M,,0000*67
$GPGGA,061300.000,3346.8778,N,08424.0586,W,1,06,2.9,326.9,M,-30.8,M,,0000*67
$GPGGA,061400.000,3346.8778,N,08424.0586,W,1,06,2.9,326.9,M,-30.8,M,,0000*67
$GPGGA,061500.000,3346.8778,N,08424.0586,W,1,06,2.9,326.9,M,-30.8,M,,0000*67
$GPGGA,061600.000,3346.8778,N,08424.0586,W,1,06,2.9,326.9,M,-30.8,M,,0000*67
$GPGGA,061700.000,3346.8778,N,08424.0586,W,1,06,2.9,326.9,M,-30.8,M,,0000*67
$GPGGA,061800.000,3346.8778,N,08424.0586,W,1,06,2.9,326.9,M,-30.8,M,,0000*67
$GPGGA,061900.000,3346.8778,N,08424.0586,W,1,06,2.9,326.9,M,-30.8,M,,0000*67
$GPGGA,062000.000,3346.8778,N,08424.0586,W,1,06,2.9,326.9,M,-30.8,M,,0000*67
$GPGGA,062100.000,3346.8778,N,08424.0586,W,1,06,2.9,326.9,M,-30.8,M,,0000*67
$GPGGA,062200.000,3346.8778,N,08424.0586,W,1,06,2.9,326.9,M,-30.8,M,,0000*67
$GPGGA,062300.000,3346.8778,N,08424.0586,W,1,06,2.9,326.9,M,-30.8,M,,0000*67
$GPGGA,062400.000,3346.8778,N,08424.0586,W,1,06,2.9,326.9,M,-30.8,M,,0000*67
$GPGGA,062500.000,3346.8778,N,08424.0586,W,1,06,2.9,326.9,M,-30.8,M,,0000*67
$GPGGA,062600.000,3346.8778,N,08424.0586,W,1,06,2.9,326.9,M,-30.8,M,,0000*67
$GPGGA,062700.000,3346.8778,N,08424.0586,W,1,06,2.9,326.9,M,-30.8,M,,0000*67
$GPGGA,062800.000,3346.8778,N,08424.0586,W,1,06,2.9,326.9,M,-30.8,M,,0000*67
$GPGGA,062900.000,3346.8778,N,08424.0586,W,1,06,2.9,326.9,M,-30.8,M,,0000*67
$GPGGA,063000.000,3346.8778,N,08424.0586,W,1,06,2.9,326.9,M,-30.8,M,,0000*67
$GPGGA,063100.000,3346.8778,N,08424.0586,W,1,06,2.9,326.9,M,-30.8,M,,0000*67
$GPGGA,063200.000,3346.8778,N,08424.0586,W,1,06,2.9,326.9,M,-30.8,M,,0000*67
$GPGGA,063300.000,3346.8778,N,08424.0586,W,1,06,2.9,326.9,M,-30.8,M,,0000*67
$GPGGA,063400.000,3346.8778,N,08424.0586,W,1,06,2.9,326.9,M,-30.8,M,,0000*67
$GPGGA,063500.000,3346.8778,N,08424.0586,W,1,06,2.9,326.9,M,-30.8,M,,0000*67
$GPGGA,063600.000,3346.8778,N,08424.0586,W,1,06,2.9,326.9,M,-30.8,M,,0000*67
$GPGGA,063700.000,3346.8778,N,08424.0586,W,1,06,2.9,326.9,M,-30.8,M,,0000*67
$GPGGA,063800.000,3346.8778,N,08424.0586,W,1,06,2.9,326.9,M,-30.8,M,,0000*67
$GPGGA,063900.000,3346.8778,N,08424.0586,W,1,06,2.9,326.9,M,-30.8,M,,0000*67
$GPGGA,064000.000,3346.8778,N,08424.0586,W,1,06,2.9,326.9,M,-30.8,M,,0000*67
$GPGGA,064100.000,3346.8778,N,08424.0586,W,1,06,2.9,326.9,M,-30.8,M,,0000*67
$GPGGA,064200.000,3346.8778,N,08424.0586,W,1,06,2.9,326.9,M,-30.8,M,,0000*67
$GPGGA,064300.000,3346.8778,N,08424.0586,W,1,06,2.9,326.9,M,-30.8,M,,0000*67
$GPGGA,064400.000,3346.8778,N,08424.0586,W,1,06,2.9,326.9,M,-30.8,M,,0000*67
$GPGGA,064500.000,3346.8778,N,08424.0586,W,1,06,2.9,326.9,M,-30.8,M,,0000*67
$GPGGA,064600.000,3346.8778,N,08424.0586,W,1,06,2.9,326.9,M,-30.8,M,,0000*67
$GPGGA,064700.000,3346.8778,N,08424.0586,W,1,06,2.9,326.9,M,-30.8,M,,0000*67
$GPGGA,064800.000,3346.8778,N,08424.0586,W,1,06,2.9,326.9,M,-30.8,M,,0000*67
$GPGGA,064900.000,3346.8778,N,08424.0586,W,1,06,2.9,326.9,M,-30.8,M,,0000*67
$GPGGA,065000.000,3346.8778,N,08424.0586,W,1,06,2.9,326.9,M,-30.8,M,,0000*67
$GPGGA,065100.000,3346.8778,N,08424.0586,W,1,06,2.9,326.9,M,-30.8,M,,0000*67
$GPGGA,065200.000,3346.8778,N,08424.0586,W,1,06,2.9,326.9,M,-30.8,M,,0000*67
$GPGGA,065300.000,3346.8778,N,08424.0586,W,1,06,2.9,326.9,M,-30.8,M,,0000*67
$GPGGA,065400.000,3346.8778,N,08424.0586,W,1,06,2.9,326.9,M,-30.8,M,,0000*67
$GPGGA,065500.000,3346.8778,N,08424.0586,W,1,06,2.9,326.9,M,-30.8,M,,0000*67
$GPGGA,065600.000,3346.8778,N,08424.0586,W,1,06,2.9,326.9,M,-30.8,M,,0000*67
$GPGGA,065700.000,3346.8778,N,08424.0586,W,1,06,2.9,326.9,M,-30.8,M,,0000*67
$GPGGA,065800.000,3346.8778,N,08424.0586,W,1,06,2.9,326.9,M,-30.8,M,,0000*67
$GPGGA,065900.000,3346.8778,N,08424.0586,W,1,06,2.9,326.9,M,-30.8,M,,0000*67