$GPGGA,000000.000,3346.8778,N,08424.0586,W,1,06,2.9,326.9,M,-30.8,M,,0000*67
$GPGSA,M,3,31,32,14,01,22,48,,,,,,,4.6,2.9,3.6*39,,$GPGGA,0213000.000,
$GPRMC,180420.000,A,3346.8778,N,08424.0586,W,0.00,331.93,030217,,,A*7C,,
$GPGGA,000100.000,3346.8778,N,08424.0586,W,1,06,2.9,326.9,M,-30.8,M,,0000*67
$GPGSA,M,3,31,32,14,01,22,48,,,,,,,4.6,2.9,3.6*39,,
$GPRMC,180420.000,A,3346.8778,N,08424.0586,W,0.00,331.93,030217,,,A*7C,,
$GPGGA,000200.000,3346.8778,N,08424.0586,W,1,06,2.9,326.9,M,-30.8,M,,0000*68
$GPGSA,M,3,31,32,14,01,22,48,,,,,,,4.6,2.9,3.6*40,,$GPGGA,0213000.000,
$GPRMC,180420.000,A,3346.8778,N,08424.0586,W,0.00,331.93,030217,,,A*7C,,
$GPGGA,000300.000,3346.8778,N,08424.0586,W,1,06,2.9,326.9,M,-30.8,M,,0000*68
$GPGSA,M,3,31,32,14,01,22,48,,,,,,,4.6,2.9,3.6*40,,
$GPRMC,180420.000,A,3346.8778,N,08424.0586,W,0.00,331.93,030217,,,A*7C,,
$GPGGA,000400.000,3346.8778,N,08424.0586,W,1,06,2.9,326.9,M,-30.8,M,,0000*69
$GPGSA,M,3,31,32,14,01,22,48,,,,,,,4.6,2.9,3.6*41,,$GPGGA,0213000.000,
$GPRMC,180420.000,A,3346.8778,N,08424.0586,W,0.00,331.93,030217,,,A*7C,,
$GPGGA,000500.000,3346.8778,N,08424.0586,W,1,06,2.9,326.9,M,-30.8,M,,0000*69
$GPGSA,M,3,31,32,14,01,22,48,,,,,,,4.6,2.9,3.6*41,,
$GPRMC,180420.000,A,3346.8778,N,08424.0586,W,0.00,331.93,030217,,,A*7C,,
$GPGGA,000600.000,3346.8778,N,08424.0586,W,1,06,2.9,326.9,M,-30.8,M,,0000*70
$GPGSA,M,3,31,32,14,01,22,48,,,,,,,4.6,2.9,3.6*42,,$GPGGA,0213000.000,
$GPRMC,180420.000,A,3346.8778,N,08424.0586,W,0.00,331.93,030217,,,A*7C,,
$GPGGA,000700.000,3346.8778,N,08424.0586,W,1,06,2.9,326.9,M,-30.8,M,,0000*70
$GPGSA,M,3,31,32,14,01,22,48,,,,,,,4.6,2.9,3.6*42,,
$GPRMC,180420.000,A,3346.8778,N,08424.0586,W,0.00,331.93,030217,,,A*7C,,
$GPGGA,000800.000,3346.8778,N,08424.0586,W,1,06,2.9,326.9,M,-30.8,M,,0000*71
$GPGSA,M,3,31,32,14,01,22,48,,,,,,,4.6,2.9,3.6*43,,$GPGGA,0213000.000,
$GPRMC,180420.000,A,3346.8778,N,08424.0586,W,0.00,331.93,030217,,,A*7C,,
$GPGGA,000900.000,3346.8778,N,08424.0586,W,1,06,2.9,326.9,M,-30.8,M,,0000*71
$GPGSA,M,3,31,32,14,01,22,48,,,,,,,4.6,2.9,3.6*43,,
$GPRMC,180420.000,A,3346.8778,N,08424.0586,W,0.00,331.93,030217,,,A*7C,,
$GPGGA,001000.000,3346.8778,N,08424.0586,W,1,06,2.9,326.9,M,-30.8,M,,0000*72
$GPGSA,M,3,31,32,14,01,22,48,,,,,,,4.6,2.9,3.6*44,,$GPGGA,0213000.000,
$GPRMC,180420.000,A,3346.8778,N,08424.0586,W,0.00,331.93,030217,,,A*7C,,
$GPGGA,001100.000,3346.8778,N,08424.0586,W,1,06,2.9,326.9,M,-30.8,M,,0000*72
$GPGSA,M,3,31,32,14,01,22,48,,,,,,,4.6,2.9,3.6*44,,
$GPRMC,180420.000,A,3346.8778,N,08424.0586,W,0.00,331.93,030217,,,A*7C,,
$GPGGA,001200.000,3346.8778,N,08424.0586,W,1,06,2.9,326.9,M,-30.8,M,,0000*73
$GPGSA,M,3,31,32,14,01,22,48,,,,,,,4.6,2.9,3.6*45,,$GPGGA,0213000.000,
$GPRMC,180420.000,A,3346.8778,N,08424.0586,W,0.00,331.93,030217,,,A*7C,,
$GPGGA,001300.000,3346.8778,N,08424.0586,W,1,06,2.9,326.9,M,-30.8,M,,0000*73
$GPGSA,M,3,31,32,14,01,22,48,,,,,,,4.6,2.9,3.6*45,,
$GPRMC,180420.000,A,3346.8778,N,08424.0586,W,0.00,331.93,030217,,,A*7C,,
$GPGGA,001400.000,3346.8778,N,08424.0586,W,1,06,2.9,326.9,M,-30.8,M,,0000*74
$GPGSA,M,3,31,32,14,01,22,48,,,,,,,4.6,2.9,3.6*46,,$GPGGA,0213000.000,
$GPRMC,180420.000,A,3346.8778,N,08424.0586,W,0.00,331.93,030217,,,A*7C,,
$GPGGA,001500.000,3346.8778,N,08424.0586,W,1,06,2.9,326.9,M,-30.8,M,,0000*74
$GPGSA,M,3,31,32,14,01,22,48,,,,,,,4.6,2.9,3.6*46,,
$GPRMC,180420.000,A,3346.8778,N,08424.0586,W,0.00,331.93,030217,,,A*7C,,
$GPGGA,001600.000,3346.8778,N,08424.0586,W,1,06,2.9,326.9,M,-30.8,M,,0000*75
$GPGSA,M,3,31,32,14,01,22,48,,,,,,,4.6,2.9,3.6*47,,$GPGGA,0213000.000,
$GPRMC,180420.000,A,3346.8778,N,08424.0586,W,0.00,331.93,030217,,,A*7C,,
$GPGGA,001700.000,3346.8778,N,08424.0586,W,1,06,2.9,326.9,M,-30.8,M,,0000*75
$GPGSA,M,3,31,32,14,01,22,48,,,,,,,4.6,2.9,3.6*47,,
$GPRMC,180420.000,A,3346.8778,N,08424.0586,W,0.00,331.93,030217,,,A*7C,,
$GPGGA,001800.000,3346.8778,N,08424.0586,W,1,06,2.9,326.9,M,-30.8,M,,0000*76
$GPGSA,M,3,31,32,14,01,22,48,,,,,,,4.6,2.9,3.6*48,,$GPGGA,0213000.000,
$GPRMC,180420.000,A,3346.8778,N,08424.0586,W,0.00,331.93,030217,,,A*7C,,
$GPGGA,001900.000,3346.8778,N,08424.0586,W,1,06,2.9,326.9,M,-30.8,M,,0000*76
$GPGSA,M,3,31,32,14,01,22,48,,,,,,,4.6,2.9,3.6*48,,
$GPRMC,180420.000,A,3346.8778,N,08424.0586,W,0.00,331.93,030217,,,A*7C,,
$GPGGA,002000.000,3346.8778,N,08424.0586,W,1,06,2.9,326.9,M,-30.8,M,,0000*77
$GPGSA,M,3,31,32,14,01,22,48,,,,,,,4.6,2.9,3.6*49,,$GPGGA,0213000.000,
$GPRMC,180420.000,A,3346.8778,N,08424.0586,W,0.00,331.93,030217,,,A*7C,,
$GPGGA,002100.000,3346.8778,N,08424.0586,W,1,06,2.9,326.9,M,-30.8,M,,0000*77
$GPGSA,M,3,31,32,14,01,22,48,,,,,,,4.6,2.9,3.6*49,,
$GPRMC,180420.000,A,3346.8778,N,08424.0586,W,0.00,331.93,030217,,,A*7C,,
$GPGGA,002200.000,3346.8778,N,08424.0586,W,1,06,2.9,326.9,M,-30.8,M,,0000*78
$GPGSA,M,3,31,32,14,01,22,48,,,,,,,4.6,2.9,3.6*50,,$GPGGA,0213000.000,
$GPRMC,180420.000,A,3346.8778,N,08424.0586,W,0.00,331.93,030217,,,A*7C,,
$GPGGA,002300.000,3346.8778,N,08424.0586,W,1,06,2.9,326.9,M,-30.8,M,,0000*78
$GPGSA,M,3,31,32,14,01,22,48,,,,,,,4.6,2.9,3.6*50,,
$GPRMC,180420.000,A,3346.8778,N,08424.0586,W,0.00,331.93,030217,,,A*7C,,
$GPGGA,002400.000,3346.8778,N,08424.0586,W,1,06,2.9,326.9,M,-30.8,M,,0000*79
$GPGSA,M,3,31,32,14,01,22,48,,,,,,,4.6,2.9,3.6*51,,$GPGGA,0213000.000,
$GPRMC,180420.000,A,3346.8778,N,08424.0586,W,0.00,331.93,030217,,,A*7C,,
$GPGGA,002500.000,3346.8778,N,08424.0586,W,1,06,2.9,326.9,M,-30.8,M,,0000*79
$GPGSA,M,3,31,32,14,01,22,48,,,,,,,4.6,2.9,3.6*51,,
$GPRMC,180420.000,A,3346.8778,N,08424.0586,W,0.00,331.93,030217,,,A*7C,,
$GPGGA,002600.000,3346.8778,N,08424.0586,W,1,06,2.9,326.9,M,-30.8,M,,0000*80
$GPGSA,M,3,31,32,14,01,22,48,,,,,,,4.6,2.9,3.6*52,,$GPGGA,0213000.000,
$GPRMC,180420.000,A,3346.8778,N,08424.0586,W,0.00,331.93,030217,,,A*7C,,
$GPGGA,002700.000,3346.8778,N,08424.0586,W,1,06,2.9,326.9,M,-30.8,M,,0000*80
$GPGSA,M,3,31,32,14,01,22,48,,,,,,,4.6,2.9,3.6*52,,
$GPRMC,180420.000,A,3346.8778,N,08424.0586,W,0.00,331.93,030217,,,A*7C,,
$GPGGA,002800.000,3346.8778,N,08424.0586,W,1,06,2.9,326.9,M,-30.8,M,,0000*81
$GPGSA,M,3,31,32,14,01,22,48,,,,,,,4.6,2.9,3.6*53,,$GPGGA,0213000.000,
$GPRMC,180420.000,A,3346.8778,N,08424.0586,W,0.00,331.93,030217,,,A*7C,,
$GPGGA,002900.000,3346.8778,N,08424.0586,W,1,06,2.9,326.9,M,-30.8,M,,0000*81
$GPGSA,M,3,31,32,14,01,22,48,,,,,,,4.6,2.9,3.6*53,,
$GPRMC,180420.000,A,3346.8778,N,08424.0586,W,0.00,331.93,030217,,,A*7C,,
$GPGGA,003000.000,3346.8778,N,08424.0586,W,1,06,2.9,326.9,M,-30.8,M,,0000*82
$GPGSA,M,3,31,32,14,01,22,48,,,,,,,4.6,2.9,3.6*54,,$GPGGA,0213000.000,
$GPRMC,180420.000,A,3346.8778,N,08424.0586,W,0.00,331.93,030217,,,A*7C,,
$GPGGA,003100.000,3346.8778,N,08424.0586,W,1,06,2.9,326.9,M,-30.8,M,,0000*82
$GPGSA,M,3,31,32,14,01,22,48,,,,,,,4.6,2.9,3.6*54,,
$GPRMC,180420.000,A,3346.8778,N,08424.0586,W,0.00,331.93,030217,,,A*7C,,
$GPGGA,003200.000,3346.8778,N,08424.0586,W,1,06,2.9,326.9,M,-30.8,M,,0000*83
$GPGSA,M,3,31,32,14,01,22,48,,,,,,,4.6,2.9,3.6*55,,$GPGGA,0213000.000,
$GPRMC,180420.000,A,3346.8778,N,08424.0586,W,0.00,331.93,030217,,,A*7C,,
$GPGGA,003300.000,3346.8778,N,08424.0586,W,1,06,2.9,326.9,M,-30.8,M,,0000*83
$GPGSA,M,3,31,32,14,01,22,48,,,,,,,4.6,2.9,3.6*55,,
$GPRMC,180420.000,A,3346.8778,N,08424.0586,W,0.00,331.93,030217,,,A*7C,,
$GPGGA,003400.000,3346.8778,N,08424.0586,W,1,06,2.9,326.9,M,-30.8,M,,0000*84
$GPGSA,M,3,31,32,14,01,22,48,,,,,,,4.6,2.9,3.6*56,,$GPGGA,0213000.000,
$GPRMC,180420.000,A,3346.8778,N,08424.0586,W,0.00,331.93,030217,,,A*7C,,
$GPGGA,003500.000,3346.8778,N,08424.0586,W,1,06,2.9,326.9,M,-30.8,M,,0000*84
$GPGSA,M,3,31,32,14,01,22,48,,,,,,,4.6,2.9,3.6*56,,
$GPRMC,180420.000,A,3346.8778,N,08424.0586,W,0.00,331.93,030217,,,A*7C,,
$GPGGA,003600.000,3346.8778,N,08424.0586,W,1,06,2.9,326.9,M,-30.8,M,,0000*85
$GPGSA,M,3,31,32,14,01,22,48,,,,,,,4.6,2.9,3.6*57,,$GPGGA,0213000.000,
$GPRMC,180420.000,A,3346.8778,N,08424.0586,W,0.00,331.93,030217,,,A*7C,,
$GPGGA,003700.000,3346.8778,N,08424.0586,W,1,06,2.9,326.9,M,-30.8,M,,0000*85
$GPGSA,M,3,31,32,14,01,22,48,,,,,,,4.6,2.9,3.6*57,,
$GPRMC,180420.000,A,3346.8778,N,08424.0586,W,0.00,331.93,030217,,,A*7C,,
$GPGGA,003800.000,3346.8778,N,08424.0586,W,1,06,2.9,326.9,M,-30.8,M,,0000*86
$GPGSA,M,3,31,32,14,01,22,48,,,,,,,4.6,2.9,3.6*58,,$GPGGA,0213000.000,
$GPRMC,180420.000,A,3346.8778,N,08424.0586,W,0.00,331.93,030217,,,A*7C,,
$GPGGA,003900.000,3346.8778,N,08424.0586,W,1,06,2.9,326.9,M,-30.8,M,,0000*86
$GPGSA,M,3,31,32,14,01,22,48,,,,,,,4.6,2.9,3.6*58,,
$GPRMC,180420.000,A,3346.8778,N,08424.0586,W,0.00,331.93,030217,,,A*7C,,
$GPGGA,004000.000,3346.8778,N,08424.0586,W,1,06,2.9,326.9,M,-30.8,M,,0000*87
$GPGSA,M,3,31,32,14,01,22,48,,,,,,,4.6,2.9,3.6*59,,$GPGGA,0213000.000,
$GPRMC,180420.000,A,3346.8778,N,08424.0586,W,0.00,331.93,030217,,,A*7C,,
$GPGGA,004100.000,3346.8778,N,08424.0586,W,1,06,2.9,326.9,M,-30.8,M,,0000*87
$GPGSA,M,3,31,32,14,01,22,48,,,,,,,4.6,2.9,3.6*59,,
$GPRMC,180420.000,A,3346.8778,N,08424.0586,W,0.00,331.93,030217,,,A*7C,,
$GPGGA,004200.000,3346.8778,N,08424.0586,W,1,06,2.9,326.9,M,-30.8,M,,0000*88
$GPGSA,M,3,31,32,14,01,22,48,,,,,,,4.6,2.9,3.6*60,,$GPGGA,0213000.000,
$GPRMC,180420.000,A,3346.8778,N,08424.0586,W,0.00,331.93,030217,,,A*7C,,
$GPGGA,004300.000,3346.8778,N,08424.0586,W,1,06,2.9,326.9,M,-30.8,M,,0000*88
$GPGSA,M,3,31,32,14,01,22,48,,,,,,,4.6,2.9,3.6*60,,
$GPRMC,180420.000,A,3346.8778,N,08424.0586,W,0.00,331.93,030217,,,A*7C,,
$GPGGA,004400.000,3346.8778,N,08424.0586,W,1,06,2.9,326.9,M,-30.8,M,,0000*89
$GPGSA,M,3,31,32,14,01,22,48,,,,,,,4.6,2.9,3.6*61,,$GPGGA,0213000.000,
$GPRMC,180420.000,A,3346.8778,N,08424.0586,W,0.00,331.93,030217,,,A*7C,,
$GPGGA,004500.000,3346.8778,N,08424.0586,W,1,06,2.9,326.9,M,-30.8,M,,0000*89
$GPGSA,M,3,31,32,14,01,22,48,,,,,,,4.6,2.9,3.6*61,,
$GPRMC,180420.000,A,3346.8778,N,08424.0586,W,0.00,331.93,030217,,,A*7C,,
$GPGGA,004600.000,3346.8778,N,08424.0586,W,1,06,2.9,326.9,M,-30.8,M,,0000*90
$GPGSA,M,3,31,32,14,01,22,48,,,,,,,4.6,2.9,3.6*62,,$GPGGA,0213000.000,
$GPRMC,180420.000,A,3346.8778,N,08424.0586,W,0.00,331.93,030217,,,A*7C,,
$GPGGA,004700.000,3346.8778,N,08424.0586,W,1,06,2.9,326.9,M,-30.8,M,,0000*90
$GPGSA,M,3,31,32,14,01,22,48,,,,,,,4.6,2.9,3.6*62,,
$GPRMC,180420.000,A,3346.8778,N,08424.0586,W,0.00,331.93,030217,,,A*7C,,
$GPGGA,004800.000,3346.8778,N,08424.0586,W,1,06,2.9,326.9,M,-30.8,M,,0000*91
$GPGSA,M,3,31,32,14,01,22,48,,,,,,,4.6,2.9,3.6*63,,$GPGGA,0213000.000,
$GPRMC,180420.000,A,3346.8778,N,08424.0586,W,0.00,331.93,030217,,,A*7C,,
$GPGGA,004900.000,3346.8778,N,08424.0586,W,1,06,2.9,326.9,M,-30.8,M,,0000*91
$GPGSA,M,3,31,32,14,01,22,48,,,,,,,4.6,2.9,3.6*63,,
$GPRMC,180420.000,A,3346.8778,N,08424.0586,W,0.00,331.93,030217,,,A*7C,,
$GPGGA,005000.000,3346.8778,N,08424.0586,W,1,06,2.9,326.9,M,-30.8,M,,0000*92
$GPGSA,M,3,31,32,14,01,22,48,,,,,,,4.6,2.9,3.6*64,,$GPGGA,0213000.000,
$GPRMC,180420.000,A,3346.8778,N,08424.0586,W,0.00,331.93,030217,,,A*7C,,
$GPGGA,005100.000,3346.8778,N,08424.0586,W,1,06,2.9,326.9,M,-30.8,M,,0000*92
$GPGSA,M,3,31,32,14,01,22,48,,,,,,,4.6,2.9,3.6*64,,
$GPRMC,180420.000,A,3346.8778,N,08424.0586,W,0.00,331.93,030217,,,A*7C,,
$GPGGA,005200.000,3346.8778,N,08424.0586,W,1,06,2.9,326.9,M,-30.8,M,,0000*93
$GPGSA,M,3,31,32,14,01,22,48,,,,,,,4.6,2.9,3.6*65,,$GPGGA,0213000.000,
$GPRMC,180420.000,A,3346.8778,N,08424.0586,W,0.00,331.93,030217,,,A*7C,,
$GPGGA,005300.000,3346.8778,N,08424.0586,W,1,06,2.9,326.9,M,-30.8,M,,0000*93
$GPGSA,M,3,31,32,14,01,22,48,,,,,,,4.6,2.9,3.6*65,,
$GPRMC,180420.000,A,3346.8778,N,08424.0586,W,0.00,331.93,030217,,,A*7C,,
$GPGGA,005400.000,3346.8778,N,08424.0586,W,1,06,2.9,326.9,M,-30.8,M,,0000*94
$GPGSA,M,3,31,32,14,01,22,48,,,,,,,4.6,2.9,3.6*66,,$GPGGA,0213000.000,
$GPRMC,180420.000,A,3346.8778,N,08424.0586,W,0.00,331.93,030217,,,A*7C,,
$GPGGA,005500.000,3346.8778,N,08424.0586,W,1,06,2.9,326.9,M,-30.8,M,,0000*94
$GPGSA,M,3,31,32,14,01,22,48,,,,,,,4.6,2.9,3.6*66,,
$GPRMC,180420.000,A,3346.8778,N,08424.0586,W,0.00,331.93,030217,,,A*7C,,
$GPGGA,005600.000,3346.8778,N,08424.0586,W,1,06,2.9,326.9,M,-30.8,M,,0000*95
$GPGSA,M,3,31,32,14,01,22,48,,,,,,,4.6,2.9,3.6*67,,$GPGGA,0213000.000,
$GPRMC,180420.000,A,3346.8778,N,08424.0586,W,0.00,331.93,030217,,,A*7C,,
$GPGGA,005700.000,3346.8778,N,08424.0586,W,1,06,2.9,326.9,M,-30.8,M,,0000*95
$GPGSA,M,3,31,32,14,01,22,48,,,,,,,4.6,2.9,3.6*67,,
$GPRMC,180420.000,A,3346.8778,N,08424.0586,W,0.00,331.93,030217,,,A*7C,,
$GPGGA,005800.000,3346.8778,N,08424.0586,W,1,06,2.9,326.9,M,-30.8,M,,0000*96
$GPGSA,M,3,31,32,14,01,22,48,,,,,,,4.6,2.9,3.6*68,,$GPGGA,0213000.000,
$GPRMC,180420.000,A,3346.8778,N,08424.0586,W,0.00,331.93,030217,,,A*7C,,
$GPGGA,005900.000,3346.8778,N,08424.0586,W,1,06,2.9,326.9,M,-30.8,M,,0000*96
$GPGSA,M,3,31,32,14,01,22,48,,,,,,,4.6,2.9,3.6*68,,
$GPRMC,180420.000,A,3346.8778,N,08424.0586,W,0.00,331.93,030217,,,A*7C,,
$GPGGA,010000.000,3346.8778,N,08424.0586,W,1,06,2.9,326.9,M,-30.8,M,,0000*97
$GPGSA,M,3,31,32,14,01,22,48,,,,,,,4.6,2.9,3.6*69,,$GPGGA,0213000.000,
$GPRMC,180420.000,A,3346.8778,N,08424.0586,W,0.00,331.93,030217,,,A*7C,,
$GPGGA,010100.000,3346.8778,N,08424.0586,W,1,06,2.9,326.9,M,-30.8,M,,0000*97
$GPGSA,M,3,31,32,14,01,22,48,,,,,,,4.6,2.9,3.6*69,,
$GPRMC,180420.000,A,3346.8778,N,08424.0586,W,0.00,331.93,030217,,,A*7C,,
$GPGGA,010200.000,3346.8778,N,08424.0586,W,1,06,2.9,326.9,M,-30.8,M,,0000*98
$GPGSA,M,3,31,32,14,01,22,48,,,,,,,4.6,2.9,3.6*70,,$GPGGA,0213000.000,
$GPRMC,180420.000,A,3346.8778,N,08424.0586,W,0.00,331.93,030217,,,A*7C,,
$GPGGA,010300.000,3346.8778,N,08424.0586,W,1,06,2.9,326.9,M,-30.8,M,,0000*98
$GPGSA,M,3,31,32,14,01,22,48,,,,,,,4.6,2.9,3.6*70,,
$GPRMC,180420.000,A,3346.8778,N,08424.0586,W,0.00,331.93,030217,,,A*7C,,
$GPGGA,010400.000,3346.8778,N,08424.0586,W,1,06,2.9,326.9,M,-30.8,M,,0000*99
$GPGSA,M,3,31,32,14,01,22,48,,,,,,,4.6,2.9,3.6*71,,$GPGGA,0213000.000,
$GPRMC,180420.000,A,3346.8778,N,08424.0586,W,0.00,331.93,030217,,,A*7C,,
$GPGGA,010500.000,3346.8778,N,08424.0586,W,1,06,2.9,326.9,M,-30.8,M,,0000*99
$GPGSA,M,3,31,32,14,01,22,48,,,,,,,4.6,2.9,3.6*71,,
$GPRMC,180420.000,A,3346.8778,N,08424.0586,W,0.00,331.93,030217,,,A*7C,,
$GPGGA,010600.000,3346.8778,N,08424.0586,W,1,06,2.9,326.9,M,-30.8,M,,0000*100
$GPGSA,M,3,31,32,14,01,22,48,,,,,,,4.6,2.9,3.6*72,,$GPGGA,0213000.000,
$GPRMC,180420.000,A,3346.8778,N,08424.0586,W,0.00,331.93,030217,,,A*7C,,
$GPGGA,010700.000,3346.8778,N,08424.0586,W,1,06,2.9,326.9,M,-30.8,M,,0000*100
$GPGSA,M,3,31,32,14,01,22,48,,,,,,,4.6,2.9,3.6*72,,
$GPRMC,180420.000,A,3346.8778,N,08424.0586,W,0.00,331.93,030217,,,A*7C,,
$GPGGA,010800.000,3346.8778,N,08424.0586,W,1,06,2.9,326.9,M,-30.8,M,,0000*101
$GPGSA,M,3,31,32,14,01,22,48,,,,,,,4.6,2.9,3.6*73,,$GPGGA,0213000.000,
$GPRMC,180420.000,A,3346.8778,N,08424.0586,W,0.00,331.93,030217,,,A*7C,,
$GPGGA,010900.000,3346.8778,N,08424.0586,W,1,06,2.9,326.9,M,-30.8,M,,0000*101
$GPGSA,M,3,31,32,14,01,22,48,,,,,,,4.6,2.9,3.6*73,,
$GPRMC,180420.000,A,3346.8778,N,08424.0586,W,0.00,331.93,030217,,,A*7C,,
$GPGGA,011000.000,3346.8778,N,08424.0586,W,1,06,2.9,326.9,M,-30.8,M,,0000*102
$GPGSA,M,3,31,32,14,01,22,48,,,,,,,4.6,2.9,3.6*74,,$GPGGA,0213000.000,
$GPRMC,180420.000,A,3346.8778,N,08424.0586,W,0.00,331.93,030217,,,A*7C,,
$GPGGA,011100.000,3346.8778,N,08424.0586,W,1,06,2.9,326.9,M,-30.8,M,,0000*102
$GPGSA,M,3,31,32,14,01,22,48,,,,,,,4.6,2.9,3.6*74,,
$GPRMC,180420.000,A,3346.8778,N,08424.0586,W,0.00,331.93,030217,,,A*7C,,
$GPGGA,011200.000,3346.8778,N,08424.0586,W,1,06,2.9,326.9,M,-30.8,M,,0000*103
$GPGSA,M,3,31,32,14,01,22,48,,,,,,,4.6,2.9,3.6*75,,$GPGGA,0213000.000,
$GPRMC,180420.000,A,3346.8778,N,08424.0586,W,0.00,331.93,030217,,,A*7C,,
$GPGGA,011300.000,3346.8778,N,08424.0586,W,1,06,2.9,326.9,M,-30.8,M,,0000*103
$GPGSA,M,3,31,32,14,01,22,48,,,,,,,4.6,2.9,3.6*75,,
$GPRMC,180420.000,A,3346.8778,N,08424.0586,W,0.00,331.93,030217,,,A*7C,,
$GPGGA,011400.000,3346.8778,N,08424.0586,W,1,06,2.9,326.9,M,-30.8,M,,0000*104
$GPGSA,M,3,31,32,14,01,22,48,,,,,,,4.6,2.9,3.6*76,,$GPGGA,0213000.000,
$GPRMC,180420.000,A,3346.8778,N,08424.0586,W,0.00,331.93,030217,,,A*7C,,
$GPGGA,011500.000,3346.8778,N,08424.0586,W,1,06,2.9,326.9,M,-30.8,M,,0000*104
$GPGSA,M,3,31,32,14,01,22,48,,,,,,,4.6,2.9,3.6*76,,
$GPRMC,180420.000,A,3346.8778,N,08424.0586,W,0.00,331.93,030217,,,A*7C,,
$GPGGA,011600.000,3346.8778,N,08424.0586,W,1,06,2.9,326.9,M,-30.8,M,,0000*105
$GPGSA,M,3,31,32,14,01,22,48,,,,,,,4.6,2.9,3.6*77,,$GPGGA,0213000.000,
$GPRMC,180420.000,A,3346.8778,N,08424.0586,W,0.00,331.93,030217,,,A*7C,,
$GPGGA,011700.000,3346.8778,N,08424.0586,W,1,06,2.9,326.9,M,-30.8,M,,0000*105
$GPGSA,M,3,31,32,14,01,22,48,,,,,,,4.6,2.9,3.6*77,,
$GPRMC,180420.000,A,3346.8778,N,08424.0586,W,0.00,331.93,030217,,,A*7C,,
$GPGGA,011800.000,3346.8778,N,08424.0586,W,1,06,2.9,326.9,M,-30.8,M,,0000*106
$GPGSA,M,3,31,32,14,01,22,48,,,,,,,4.6,2.9,3.6*78,,$GPGGA,0213000.000,
$GPRMC,180420.000,A,3346.8778,N,08424.0586,W,0.00,331.93,030217,,,A*7C,,
$GPGGA,011900.000,3346.8778,N,08424.0586,W,1,06,2.9,326.9,M,-30.8,M,,0000*106
$GPGSA,M,3,31,32,14,01,22,48,,,,,,,4.6,2.9,3.6*78,,
$GPRMC,180420.000,A,3346.8778,N,08424.0586,W,0.00,331.93,030217,,,A*7C,,
$GPGGA,012000.000,3346.8778,N,08424.0586,W,1,06,2.9,326.9,M,-30.8,M,,0000*107
$GPGSA,M,3,31,32,14,01,22,48,,,,,,,4.6,2.9,3.6*79,,$GPGGA,0213000.000,
$GPRMC,180420.000,A,3346.8778,N,08424.0586,W,0.00,331.93,030217,,,A*7C,,
$GPGGA,012100.000,3346.8778,N,08424.0586,W,1,06,2.9,326.9,M,-30.8,M,,0000*107
$GPGSA,M,3,31,32,14,01,22,48,,,,,,,4.6,2.9,3.6*79,,
$GPRMC,180420.000,A,3346.8778,N,08424.0586,W,0.00,331.93,030217,,,A*7C,,
$GPGGA,012200.000,3346.8778,N,08424.0586,W,1,06,2.9,326.9,M,-30.8,M,,0000*108
$GPGSA,M,3,31,32,14,01,22,48,,,,,,,4.6,2.9,3.6*80,,$GPGGA,0213000.000,
$GPRMC,180420.000,A,3346.8778,N,08424.0586,W,0.00,331.93,030217,,,A*7C,,
$GPGGA,012300.000,3346.8778,N,08424.0586,W,1,06,2.9,326.9,M,-30.8,M,,0000*108
$GPGSA,M,3,31,32,14,01,22,48,,,,,,,4.6,2.9,3.6*80,,
$GPRMC,180420.000,A,3346.8778,N,08424.0586,W,0.00,331.93,030217,,,A*7C,,
$GPGGA,012400.000,3346.8778,N,08424.0586,W,1,06,2.9,326.9,M,-30.8,M,,0000*109
$GPGSA,M,3,31,32,14,01,22,48,,,,,,,4.6,2.9,3.6*81,,$GPGGA,0213000.000,
$GPRMC,180420.000,A,3346.8778,N,08424.0586,W,0.00,331.93,030217,,,A*7C,,
$GPGGA,012500.000,3346.8778,N,08424.0586,W,1,06,2.9,326.9,M,-30.8,M,,0000*109
$GPGSA,M,3,31,32,14,01,22,48,,,,,,,4.6,2.9,3.6*81,,
$GPRMC,180420.000,A,3346.8778,N,08424.0586,W,0.00,331.93,030217,,,A*7C,,
$GPGGA,012600.000,3346.8778,N,08424.0586,W,1,06,2.9,326.9,M,-30.8,M,,0000*110
$GPGSA,M,3,31,32,14,01,22,48,,,,,,,4.6,2.9,3.6*82,,$GPGGA,0213000.000,
$GPRMC,180420.000,A,3346.8778,N,08424.0586,W,0.00,331.93,030217,,,A*7C,,
$GPGGA,012700.000,3346.8778,N,08424.0586,W,1,06,2.9,326.9,M,-30.8,M,,0000*110
$GPGSA,M,3,31,32,14,01,22,48,,,,,,,4.6,2.9,3.6*82,,
$GPRMC,180420.000,A,3346.8778,N,08424.0586,W,0.00,331.93,030217,,,A*7C,,
$GPGGA,012800.000,3346.8778,N,08424.0586,W,1,06,2.9,326.9,M,-30.8,M,,0000*111
$GPGSA,M,3,31,32,14,01,22,48,,,,,,,4.6,2.9,3.6*83,,$GPGGA,0213000.000,
$GPRMC,180420.000,A,3346.8778,N,08424.0586,W,0.00,331.93,030217,,,A*7C,,
$GPGGA,012900.000,3346.8778,N,08424.0586,W,1,06,2.9,326.9,M,-30.8,M,,0000*111
$GPGSA,M,3,31,32,14,01,22,48,,,,,,,4.6,2.9,3.6*83,,
$GPRMC,180420.000,A,3346.8778,N,08424.0586,W,0.00,331.93,030217,,,A*7C,,
$GPGGA,013000.000,3346.8778,N,08424.0586,W,1,06,2.9,326.9,M,-30.8,M,,0000*112
$GPGSA,M,3,31,32,14,01,22,48,,,,,,,4.6,2.9,3.6*84,,$GPGGA,0213000.000,
$GPRMC,180420.000,A,3346.8778,N,08424.0586,W,0.00,331.93,030217,,,A*7C,,
$GPGGA,013100.000,3346.8778,N,08424.0586,W,1,06,2.9,326.9,M,-30.8,M,,0000*112
$GPGSA,M,3,31,32,14,01,22,48,,,,,,,4.6,2.9,3.6*84,,
$GPRMC,180420.000,A,3346.8778,N,08424.0586,W,0.00,331.93,030217,,,A*7C,,
$GPGGA,013200.000,3346.8778,N,08424.0586,W,1,06,2.9,326.9,M,-30.8,M,,0000*113
$GPGSA,M,3,31,32,14,01,22,48,,,,,,,4.6,2.9,3.6*85,,$GPGGA,0213000.000,
$GPRMC,180420.000,A,3346.8778,N,08424.0586,W,0.00,331.93,030217,,,A*7C,,
$GPGGA,013300.000,3346.8778,N,08424.0586,W,1,06,2.9,326.9,M,-30.8,M,,0000*113
$GPGSA,M,3,31,32,14,01,22,48,,,,,,,4.6,2.9,3.6*85,,
$GPRMC,180420.000,A,3346.8778,N,08424.0586,W,0.00,331.93,030217,,,A*7C,,
$GPGGA,013400.000,3346.8778,N,08424.0586,W,1,06,2.9,326.9,M,-30.8,M,,0000*114
$GPGSA,M,3,31,32,14,01,22,48,,,,,,,4.6,2.9,3.6*86,,$GPGGA,0213000.000,
$GPRMC,180420.000,A,3346.8778,N,08424.0586,W,0.00,331.93,030217,,,A*7C,,
$GPGGA,013500.000,3346.8778,N,08424.0586,W,1,06,2.9,326.9,M,-30.8,M,,0000*114
$GPGSA,M,3,31,32,14,01,22,48,,,,,,,4.6,2.9,3.6*86,,
$GPRMC,180420.000,A,3346.8778,N,08424.0586,W,0.00,331.93,030217,,,A*7C,,
$GPGGA,013600.000,3346.8778,N,08424.0586,W,1,06,2.9,326.9,M,-30.8,M,,0000*115
$GPGSA,M,3,31,32,14,01,22,48,,,,,,,4.6,2.9,3.6*87,,$GPGGA,0213000.000,
$GPRMC,180420.000,A,3346.8778,N,08424.0586,W,0.00,331.93,030217,,,A*7C,,
$GPGGA,013700.000,3346.8778,N,08424.0586,W,1,06,2.9,326.9,M,-30.8,M,,0000*115
$GPGSA,M,3,31,32,14,01,22,48,,,,,,,4.6,2.9,3.6*87,,
$GPRMC,180420.000,A,3346.8778,N,08424.0586,W,0.00,331.93,030217,,,A*7C,,
$GPGGA,013800.000,3346.8778,N,08424.0586,W,1,06,2.9,326.9,M,-30.8,M,,0000*116
$GPGSA,M,3,31,32,14,01,22,48,,,,,,,4.6,2.9,3.6*88,,$GPGGA,0213000.000,
$GPRMC,180420.000,A,3346.8778,N,08424.0586,W,0.00,331.93,030217,,,A*7C,,
$GPGGA,013900.000,3346.8778,N,08424.0586,W,1,06,2.9,326.9,M,-30.8,M,,0000*116
$GPGSA,M,3,31,32,14,01,22,48,,,,,,,4.6,2.9,3.6*88,,
$GPRMC,180420.000,A,3346.8778,N,08424.0586,W,0.00,331.93,030217,,,A*7C,,
$GPGGA,014000.000,3346.8778,N,08424.0586,W,1,06,2.9,326.9,M,-30.8,M,,0000*117
$GPGSA,M,3,31,32,14,01,22,48,,,,,,,4.6,2.9,3.6*89,,$GPGGA,0213000.000,
$GPRMC,180420.000,A,3346.8778,N,08424.0586,W,0.00,331.93,030217,,,A*7C,,
$GPGGA,014100.000,3346.8778,N,08424.0586,W,1,06,2.9,326.9,M,-30.8,M,,0000*117
$GPGSA,M,3,31,32,14,01,22,48,,,,,,,4.6,2.9,3.6*89,,
$GPRMC,180420.000,A,3346.8778,N,08424.0586,W,0.00,331.93,030217,,,A*7C,,
$GPGGA,014200.000,3346.8778,N,08424.0586,W,1,06,2.9,326.9,M,-30.8,M,,0000*118
$GPGSA,M,3,31,32,14,01,22,48,,,,,,,4.6,2.9,3.6*90,,$GPGGA,0213000.000,
$GPRMC,180420.000,A,3346.8778,N,08424.0586,W,0.00,331.93,030217,,,A*7C,,
$GPGGA,014300.000,3346.8778,N,08424.0586,W,1,06,2.9,326.9,M,-30.8,M,,0000*118
$GPGSA,M,3,31,32,14,01,22,48,,,,,,,4.6,2.9,3.6*90,,
$GPRMC,180420.000,A,3346.8778,N,08424.0586,W,0.00,331.93,030217,,,A*7C,,
$GPGGA,014400.000,3346.8778,N,08424.0586,W,1,06,2.9,326.9,M,-30.8,M,,0000*119
$GPGSA,M,3,31,32,14,01,22,48,,,,,,,4.6,2.9,3.6*91,,$GPGGA,0213000.000,
$GPRMC,180420.000,A,3346.8778,N,08424.0586,W,0.00,331.93,030217,,,A*7C,,
$GPGGA,014500.000,3346.8778,N,08424.0586,W,1,06,2.9,326.9,M,-30.8,M,,0000*119
$GPGSA,M,3,31,32,14,01,22,48,,,,,,,4.6,2.9,3.6*91,,
$GPRMC,180420.000,A,3346.8778,N,08424.0586,W,0.00,331.93,030217,,,A*7C,,
$GPGGA,014600.000,3346.8778,N,08424.0586,W,1,06,2.9,326.9,M,-30.8,M,,0000*120
$GPGSA,M,3,31,32,14,01,22,48,,,,,,,4.6,2.9,3.6*92,,$GPGGA,0213000.000,
$GPRMC,180420.000,A,3346.8778,N,08424.0586,W,0.00,331.93,030217,,,A*7C,,
$GPGGA,014700.000,3346.8778,N,08424.0586,W,1,06,2.9,326.9,M,-30.8,M,,0000*120
$GPGSA,M,3,31,32,14,01,22,48,,,,,,,4.6,2.9,3.6*92,,
$GPRMC,180420.000,A,3346.8778,N,08424.0586,W,0.00,331.93,030217,,,A*7C,,
$GPGGA,014800.000,3346.8778,N,08424.0586,W,1,06,2.9,326.9,M,-30.8,M,,0000*121
$GPGSA,M,3,31,32,14,01,22,48,,,,,,,4.6,2.9,3.6*93,,$GPGGA,0213000.000,
$GPRMC,180420.000,A,3346.8778,N,08424.0586,W,0.00,331.93,030217,,,A*7C,,
$GPGGA,014900.000,3346.8778,N,08424.0586,W,1,06,2.9,326.9,M,-30.8,M,,0000*121
$GPGSA,M,3,31,32,14,01,22,48,,,,,,,4.6,2.9,3.6*93,,
$GPRMC,180420.000,A,3346.8778,N,08424.0586,W,0.00,331.93,030217,,,A*7C,,
$GPGGA,015000.000,3346.8778,N,08424.0586,W,1,06,2.9,326.9,M,-30.8,M,,0000*122
$GPGSA,M,3,31,32,14,01,22,48,,,,,,,4.6,2.9,3.6*94,,$GPGGA,0213000.000,
$GPRMC,180420.000,A,3346.8778,N,08424.0586,W,0.00,331.93,030217,,,A*7C,,
$GPGGA,015100.000,3346.8778,N,08424.0586,W,1,06,2.9,326.9,M,-30.8,M,,0000*122
$GPGSA,M,3,31,32,14,01,22,48,,,,,,,4.6,2.9,3.6*94,,
$GPRMC,180420.000,A,3346.8778,N,08424.0586,W,0.00,331.93,030217,,,A*7C,,
$GPGGA,015200.000,3346.8778,N,08424.0586,W,1,06,2.9,326.9,M,-30.8,M,,0000*123
$GPGSA,M,3,31,32,14,01,22,48,,,,,,,4.6,2.9,3.6*95,,$GPGGA,0213000.000,
$GPRMC,180420.000,A,3346.8778,N,08424.0586,W,0.00,331.93,030217,,,A*7C,,
$GPGGA,015300.000,3346.8778,N,08424.0586,W,1,06,2.9,326.9,M,-30.8,M,,0000*123
$GPGSA,M,3,31,32,14,01,22,48,,,,,,,4.6,2.9,3.6*95,,
$GPRMC,180420.000,A,3346.8778,N,08424.0586,W,0.00,331.93,030217,,,A*7C,,
$GPGGA,015400.000,3346.8778,N,08424.0586,W,1,06,2.9,326.9,M,-30.8,M,,0000*124
$GPGSA,M,3,31,32,14,01,22,48,,,,,,,4.6,2.9,3.6*96,,$GPGGA,0213000.000,
$GPRMC,180420.000,A,3346.8778,N,08424.0586,W,0.00,331.93,030217,,,A*7C,,
$GPGGA,015500.000,3346.8778,N,08424.0586,W,1,06,2.9,326.9,M,-30.8,M,,0000*124
$GPGSA,M,3,31,32,14,01,22,48,,,,,,,4.6,2.9,3.6*96,,
$GPRMC,180420.000,A,3346.8778,N,08424.0586,W,0.00,331.93,030217,,,A*7C,,
$GPGGA,015600.000,3346.8778,N,08424.0586,W,1,06,2.9,326.9,M,-30.8,M,,0000*125
$GPGSA,M,3,31,32,14,01,22,48,,,,,,,4.6,2.9,3.6*97,,$GPGGA,0213000.000,
$GPRMC,180420.000,A,3346.8778,N,08424.0586,W,0.00,331.93,030217,,,A*7C,,
$GPGGA,015700.000,3346.8778,N,08424.0586,W,1,06,2.9,326.9,M,-30.8,M,,0000*125
$GPGSA,M,3,31,32,14,01,22,48,,,,,,,4.6,2.9,3.6*97,,
$GPRMC,180420.000,A,3346.8778,N,08424.0586,W,0.00,331.93,030217,,,A*7C,,
$GPGGA,015800.000,3346.8778,N,08424.0586,W,1,06,2.9,326.9,M,-30.8,M,,0000*126
$GPGSA,M,3,31,32,14,01,22,48,,,,,,,4.6,2.9,3.6*98,,$GPGGA,0213000.000,
$GPRMC,180420.000,A,3346.8778,N,08424.0586,W,0.00,331.93,030217,,,A*7C,,
$GPGGA,015900.000,3346.8778,N,08424.0586,W,1,06,2.9,326.9,M,-30.8,M,,0000*126
$GPGSA,M,3,31,32,14,01,22,48,,,,,,,4.6,2.9,3.6*98,,
$GPRMC,180420.000,A,3346.8778,N,08424.0586,W,0.00,331.93,030217,,,A*7C,,
$GPGGA,020000.000,3346.8778,N,08424.0586,W,1,06,2.9,326.9,M,-30.8,M,,0000*127
$GPGSA,M,3,31,32,14,01,22,48,,,,,,,4.6,2.9,3.6*99,,$GPGGA,0213000.000,
$GPRMC,180420.000,A,3346.8778,N,08424.0586,W,0.00,331.93,030217,,,A*7C,,
$GPGGA,020100.000,3346.8778,N,08424.0586,W,1,06,2.9,326.9,M,-30.8,M,,0000*127
$GPGSA,M,3,31,32,14,01,22,48,,,,,,,4.6,2.9,3.6*99,,
$GPRMC,180420.000,A,3346.8778,N,08424.0586,W,0.00,331.93,030217,,,A*7C,,
$GPGGA,020200.000,3346.8778,N,08424.0586,W,1,06,2.9,326.9,M,-30.8,M,,0000*128
$GPGSA,M,3,31,32,14,01,22,48,,,,,,,4.6,2.9,3.6*100,,$GPGGA,0213000.000,
$GPRMC,180420.000,A,3346.8778,N,08424.0586,W,0.00,331.93,030217,,,A*7C,,
$GPGGA,020300.000,3346.8778,N,08424.0586,W,1,06,2.9,326.9,M,-30.8,M,,0000*128
$GPGSA,M,3,31,32,14,01,22,48,,,,,,,4.6,2.9,3.6*100,,
$GPRMC,180420.000,A,3346.8778,N,08424.0586,W,0.00,331.93,030217,,,A*7C,,
$GPGGA,020400.000,3346.8778,N,08424.0586,W,1,06,2.9,326.9,M,-30.8,M,,0000*129
$GPGSA,M,3,31,32,14,01,22,48,,,,,,,4.6,2.9,3.6*101,,$GPGGA,0213000.000,
$GPRMC,180420.000,A,3346.8778,N,08424.0586,W,0.00,331.93,030217,,,A*7C,,
$GPGGA,020500.000,3346.8778,N,08424.0586,W,1,06,2.9,326.9,M,-30.8,M,,0000*129
$GPGSA,M,3,31,32,14,01,22,48,,,,,,,4.6,2.9,3.6*101,,
$GPRMC,180420.000,A,3346.8778,N,08424.0586,W,0.00,331.93,030217,,,A*7C,,
$GPGGA,020600.000,3346.8778,N,08424.0586,W,1,06,2.9,326.9,M,-30.8,M,,0000*130
$GPGSA,M,3,31,32,14,01,22,48,,,,,,,4.6,2.9,3.6*102,,$GPGGA,0213000.000,
$GPRMC,180420.000,A,3346.8778,N,08424.0586,W,0.00,331.93,030217,,,A*7C,,
$GPGGA,020700.000,3346.8778,N,08424.0586,W,1,06,2.9,326.9,M,-30.8,M,,0000*130
$GPGSA,M,3,31,32,14,01,22,48,,,,,,,4.6,2.9,3.6*102,,
$GPRMC,180420.000,A,3346.8778,N,08424.0586,W,0.00,331.93,030217,,,A*7C,,
$GPGGA,020800.000,3346.8778,N,08424.0586,W,1,06,2.9,326.9,M,-30.8,M,,0000*131
$GPGSA,M,3,31,32,14,01,22,48,,,,,,,4.6,2.9,3.6*103,,$GPGGA,0213000.000,
$GPRMC,180420.000,A,3346.8778,N,08424.0586,W,0.00,331.93,030217,,,A*7C,,
$GPGGA,020900.000,3346.8778,N,08424.0586,W,1,06,2.9,326.9,M,-30.8,M,,0000*131
$GPGSA,M,3,31,32,14,01,22,48,,,,,,,4.6,2.9,3.6*103,,
$GPRMC,180420.000,A,3346.8778,N,08424.0586,W,0.00,331.93,030217,,,A*7C,,
$GPGGA,021000.000,3346.8778,N,08424.0586,W,1,06,2.9,326.9,M,-30.8,M,,0000*132
$GPGSA,M,3,31,32,14,01,22,48,,,,,,,4.6,2.9,3.6*104,,$GPGGA,0213000.000,
$GPRMC,180420.000,A,3346.8778,N,08424.0586,W,0.00,331.93,030217,,,A*7C,,
$GPGGA,021100.000,3346.8778,N,08424.0586,W,1,06,2.9,326.9,M,-30.8,M,,0000*132
$GPGSA,M,3,31,32,14,01,22,48,,,,,,,4.6,2.9,3.6*104,,
$GPRMC,180420.000,A,3346.8778,N,08424.0586,W,0.00,331.93,030217,,,A*7C,,
$GPGGA,021200.000,3346.8778,N,08424.0586,W,1,06,2.9,326.9,M,-30.8,M,,0000*133
$GPGSA,M,3,31,32,14,01,22,48,,,,,,,4.6,2.9,3.6*105,,$GPGGA,0213000.000,
$GPRMC,180420.000,A,3346.8778,N,08424.0586,W,0.00,331.93,030217,,,A*7C,,
$GPGGA,021300.000,3346.8778,N,08424.0586,W,1,06,2.9,326.9,M,-30.8,M,,0000*133
$GPGSA,M,3,31,32,14,01,22,48,,,,,,,4.6,2.9,3.6*105,,
$GPRMC,180420.000,A,3346.8778,N,08424.0586,W,0.00,331.93,030217,,,A*7C,,
$GPGGA,021400.000,3346.8778,N,08424.0586,W,1,06,2.9,326.9,M,-30.8,M,,0000*134
$GPGSA,M,3,31,32,14,01,22,48,,,,,,,4.6,2.9,3.6*106,,$GPGGA,0213000.000,
$GPRMC,180420.000,A,3346.8778,N,08424.0586,W,0.00,331.93,030217,,,A*7C,,
$GPGGA,021500.000,3346.8778,N,08424.0586,W,1,06,2.9,326.9,M,-30.8,M,,0000*134
$GPGSA,M,3,31,32,14,01,22,48,,,,,,,4.6,2.9,3.6*106,,
$GPRMC,180420.000,A,3346.8778,N,08424.0586,W,0.00,331.93,030217,,,A*7C,,
$GPGGA,021600.000,3346.8778,N,08424.0586,W,1,06,2.9,326.9,M,-30.8,M,,0000*135
$GPGSA,M,3,31,32,14,01,22,48,,,,,,,4.6,2.9,3.6*107,,$GPGGA,0213000.000,
$GPRMC,180420.000,A,3346.8778,N,08424.0586,W,0.00,331.93,030217,,,A*7C,,
$GPGGA,021700.000,3346.8778,N,08424.0586,W,1,06,2.9,326.9,M,-30.8,M,,0000*135
$GPGSA,M,3,31,32,14,01,22,48,,,,,,,4.6,2.9,3.6*107,,
$GPRMC,180420.000,A,3346.8778,N,08424.0586,W,0.00,331.93,030217,,,A*7C,,
$GPGGA,021800.000,3346.8778,N,08424.0586,W,1,06,2.9,326.9,M,-30.8,M,,0000*136
$GPGSA,M,3,31,32,14,01,22,48,,,,,,,4.6,2.9,3.6*108,,$GPGGA,0213000.000,
$GPRMC,180420.000,A,3346.8778,N,08424.0586,W,0.00,331.93,030217,,,A*7C,,
$GPGGA,021900.000,3346.8778,N,08424.0586,W,1,06,2.9,326.9,M,-30.8,M,,0000*136
$GPGSA,M,3,31,32,14,01,22,48,,,,,,,4.6,2.9,3.6*108,,
$GPRMC,180420.000,A,3346.8778,N,08424.0586,W,0.00,331.93,030217,,,A*7C,,
$GPGGA,022000.000,3346.8778,N,08424.0586,W,1,06,2.9,326.9,M,-30.8,M,,0000*137
$GPGSA,M,3,31,32,14,01,22,48,,,,,,,4.6,2.9,3.6*109,,$GPGGA,0213000.000,
$GPRMC,180420.000,A,3346.8778,N,08424.0586,W,0.00,331.93,030217,,,A*7C,,
$GPGGA,022100.000,3346.8778,N,08424.0586,W,1,06,2.9,326.9,M,-30.8,M,,0000*137
$GPGSA,M,3,31,32,14,01,22,48,,,,,,,4.6,2.9,3.6*109,,
$GPRMC,180420.000,A,3346.8778,N,08424.0586,W,0.00,331.93,030217,,,A*7C,,
$GPGGA,022200.000,3346.8778,N,08424.0586,W,1,06,2.9,326.9,M,-30.8,M,,0000*138
$GPGSA,M,3,31,32,14,01,22,48,,,,,,,4.6,2.9,3.6*110,,$GPGGA,0213000.000,
$GPRMC,180420.000,A,3346.8778,N,08424.0586,W,0.00,331.93,030217,,,A*7C,,
$GPGGA,022300.000,3346.8778,N,08424.0586,W,1,06,2.9,326.9,M,-30.8,M,,0000*138
$GPGSA,M,3,31,32,14,01,22,48,,,,,,,4.6,2.9,3.6*110,,
$GPRMC,180420.000,A,3346.8778,N,08424.0586,W,0.00,331.93,030217,,,A*7C,,
$GPGGA,022400.000,3346.8778,N,08424.0586,W,1,06,2.9,326.9,M,-30.8,M,,0000*139
$GPGSA,M,3,31,32,14,01,22,48,,,,,,,4.6,2.9,3.6*111,,$GPGGA,0213000.000,
$GPRMC,180420.000,A,3346.8778,N,08424.0586,W,0.00,331.93,030217,,,A*7C,,
$GPGGA,022500.000,3346.8778,N,08424.0586,W,1,06,2.9,326.9,M,-30.8,M,,0000*139
$GPGSA,M,3,31,32,14,01,22,48,,,,,,,4.6,2.9,3.6*111,,
$GPRMC,180420.000,A,3346.8778,N,08424.0586,W,0.00,331.93,030217,,,A*7C,,
$GPGGA,022600.000,3346.8778,N,08424.0586,W,1,06,2.9,326.9,M,-30.8,M,,0000*140
$GPGSA,M,3,31,32,14,01,22,48,,,,,,,4.6,2.9,3.6*112,,$GPGGA,0213000.000,
$GPRMC,180420.000,A,3346.8778,N,08424.0586,W,0.00,331.93,030217,,,A*7C,,
$GPGGA,022700.000,3346.8778,N,08424.0586,W,1,06,2.9,326.9,M,-30.8,M,,0000*140
$GPGSA,M,3,31,32,14,01,22,48,,,,,,,4.6,2.9,3.6*112,,
$GPRMC,180420.000,A,3346.8778,N,08424.0586,W,0.00,331.93,030217,,,A*7C,,
$GPGGA,022800.000,3346.8778,N,08424.0586,W,1,06,2.9,326.9,M,-30.8,M,,0000*141
$GPGSA,M,3,31,32,14,01,22,48,,,,,,,4.6,2.9,3.6*113,,$GPGGA,0213000.000,
$GPRMC,180420.000,A,3346.8778,N,08424.0586,W,0.00,331.93,030217,,,A*7C,,
$GPGGA,022900.000,3346.8778,N,08424.0586,W,1,06,2.9,326.9,M,-30.8,M,,0000*141
$GPGSA,M,3,31,32,14,01,22,48,,,,,,,4.6,2.9,3.6*113,,
$GPRMC,180420.000,A,3346.8778,N,08424.0586,W,0.00,331.93,030217,,,A*7C,,
$GPGGA,023000.000,3346.8778,N,08424.0586,W,1,06,2.9,326.9,M,-30.8,M,,0000*142
$GPGSA,M,3,31,32,14,01,22,48,,,,,,,4.6,2.9,3.6*114,,$GPGGA,0213000.000,
$GPRMC,180420.000,A,3346.8778,N,08424.0586,W,0.00,331.93,030217,,,A*7C,,
$GPGGA,023100.000,3346.8778,N,08424.0586,W,1,06,2.9,326.9,M,-30.8,M,,0000*142
$GPGSA,M,3,31,32,14,01,22,48,,,,,,,4.6,2.9,3.6*114,,
$GPRMC,180420.000,A,3346.8778,N,08424.0586,W,0.00,331.93,030217,,,A*7C,,
$GPGGA,023200.000,3346.8778,N,08424.0586,W,1,06,2.9,326.9,M,-30.8,M,,0000*143
$GPGSA,M,3,31,32,14,01,22,48,,,,,,,4.6,2.9,3.6*115,,$GPGGA,0213000.000,
$GPRMC,180420.000,A,3346.8778,N,08424.0586,W,0.00,331.93,030217,,,A*7C,,
$GPGGA,023300.000,3346.8778,N,08424.0586,W,1,06,2.9,326.9,M,-30.8,M,,0000*143
$GPGSA,M,3,31,32,14,01,22,48,,,,,,,4.6,2.9,3.6*115,,
$GPRMC,180420.000,A,3346.8778,N,08424.0586,W,0.00,331.93,030217,,,A*7C,,
$GPGGA,023400.000,3346.8778,N,08424.0586,W,1,06,2.9,326.9,M,-30.8,M,,0000*144
$GPGSA,M,3,31,32,14,01,22,48,,,,,,,4.6,2.9,3.6*116,,$GPGGA,0213000.000,
$GPRMC,180420.000,A,3346.8778,N,08424.0586,W,0.00,331.93,030217,,,A*7C,,
$GPGGA,023500.000,3346.8778,N,08424.0586,W,1,06,2.9,326.9,M,-30.8,M,,0000*144
$GPGSA,M,3,31,32,14,01,22,48,,,,,,,4.6,2.9,3.6*116,,
$GPRMC,180420.000,A,3346.8778,N,08424.0586,W,0.00,331.93,030217,,,A*7C,,
$GPGGA,023600.000,3346.8778,N,08424.0586,W,1,06,2.9,326.9,M,-30.8,M,,0000*145
$GPGSA,M,3,31,32,14,01,22,48,,,,,,,4.6,2.9,3.6*117,,$GPGGA,0213000.000,
$GPRMC,180420.000,A,3346.8778,N,08424.0586,W,0.00,331.93,030217,,,A*7C,,
$GPGGA,023700.000,3346.8778,N,08424.0586,W,1,06,2.9,326.9,M,-30.8,M,,0000*145
$GPGSA,M,3,31,32,14,01,22,48,,,,,,,4.6,2.9,3.6*117,,
$GPRMC,180420.000,A,3346.8778,N,08424.0586,W,0.00,331.93,030217,,,A*7C,,
$GPGGA,023800.000,3346.8778,N,08424.0586,W,1,06,2.9,326.9,M,-30.8,M,,0000*146
$GPGSA,M,3,31,32,14,01,22,48,,,,,,,4.6,2.9,3.6*118,,$GPGGA,0213000.000,
$GPRMC,180420.000,A,3346.8778,N,08424.0586,W,0.00,331.93,030217,,,A*7C,,
$GPGGA,023900.000,3346.8778,N,08424.0586,W,1,06,2.9,326.9,M,-30.8,M,,0000*146
$GPGSA,M,3,31,32,14,01,22,48,,,,,,,4.6,2.9,3.6*118,,
$GPRMC,180420.000,A,3346.8778,N,08424.0586,W,0.00,331.93,030217,,,A*7C,,
$GPGGA,024000.000,3346.8778,N,08424.0586,W,1,06,2.9,326.9,M,-30.8,M,,0000*147
$GPGSA,M,3,31,32,14,01,22,48,,,,,,,4.6,2.9,3.6*119,,$GPGGA,0213000.000,
$GPRMC,180420.000,A,3346.8778,N,08424.0586,W,0.00,331.93,030217,,,A*7C,,
$GPGGA,024100.000,3346.8778,N,08424.0586,W,1,06,2.9,326.9,M,-30.8,M,,0000*147
$GPGSA,M,3,31,32,14,01,22,48,,,,,,,4.6,2.9,3.6*119,,
$GPRMC,180420.000,A,3346.8778,N,08424.0586,W,0.00,331.93,030217,,,A*7C,,
$GPGGA,024200.000,3346.8778,N,08424.0586,W,1,06,2.9,326.9,M,-30.8,M,,0000*148
$GPGSA,M,3,31,32,14,01,22,48,,,,,,,4.6,2.9,3.6*120,,$GPGGA,0213000.000,
$GPRMC,180420.000,A,3346.8778,N,08424.0586,W,0.00,331.93,030217,,,A*7C,,
$GPGGA,024300.000,3346.8778,N,08424.0586,W,1,06,2.9,326.9,M,-30.8,M,,0000*148
$GPGSA,M,3,31,32,14,01,22,48,,,,,,,4.6,2.9,3.6*120,,
$GPRMC,180420.000,A,3346.8778,N,08424.0586,W,0.00,331.93,030217,,,A*7C,,
$GPGGA,024400.000,3346.8778,N,08424.0586,W,1,06,2.9,326.9,M,-30.8,M,,0000*149
$GPGSA,M,3,31,32,14,01,22,48,,,,,,,4.6,2.9,3.6*121,,$GPGGA,0213000.000,
$GPRMC,180420.000,A,3346.8778,N,08424.0586,W,0.00,331.93,030217,,,A*7C,,
$GPGGA,024500.000,3346.8778,N,08424.0586,W,1,06,2.9,326.9,M,-30.8,M,,0000*149
$GPGSA,M,3,31,32,14,01,22,48,,,,,,,4.6,2.9,3.6*121,,
$GPRMC,180420.000,A,3346.8778,N,08424.0586,W,0.00,331.93,030217,,,A*7C,,
$GPGGA,024600.000,3346.8778,N,08424.0586,W,1,06,2.9,326.9,M,-30.8,M,,0000*150
$GPGSA,M,3,31,32,14,01,22,48,,,,,,,4.6,2.9,3.6*122,,$GPGGA,0213000.000,
$GPRMC,180420.000,A,3346.8778,N,08424.0586,W,0.00,331.93,030217,,,A*7C,,
$GPGGA,024700.000,3346.8778,N,08424.0586,W,1,06,2.9,326.9,M,-30.8,M,,0000*150
$GPGSA,M,3,31,32,14,01,22,48,,,,,,,4.6,2.9,3.6*122,,
$GPRMC,180420.000,A,3346.8778,N,08424.0586,W,0.00,331.93,030217,,,A*7C,,
$GPGGA,024800.000,3346.8778,N,08424.0586,W,1,06,2.9,326.9,M,-30.8,M,,0000*151
$GPGSA,M,3,31,32,14,01,22,48,,,,,,,4.6,2.9,3.6*123,,$GPGGA,0213000.000,
$GPRMC,180420.000,A,3346.8778,N,08424.0586,W,0.00,331.93,030217,,,A*7C,,
$GPGGA,024900.000,3346.8778,N,08424.0586,W,1,06,2.9,326.9,M,-30.8,M,,0000*151
$GPGSA,M,3,31,32,14,01,22,48,,,,,,,4.6,2.9,3.6*123,,
$GPRMC,180420.000,A,3346.8778,N,08424.0586,W,0.00,331.93,030217,,,A*7C,,
$GPGGA,025000.000,3346.8778,N,08424.0586,W,1,06,2.9,326.9,M,-30.8,M,,0000*152
$GPGSA,M,3,31,32,14,01,22,48,,,,,,,4.6,2.9,3.6*124,,$GPGGA,0213000.000,
$GPRMC,180420.000,A,3346.8778,N,08424.0586,W,0.00,331.93,030217,,,A*7C,,
$GPGGA,025100.000,3346.8778,N,08424.0586,W,1,06,2.9,326.9,M,-30.8,M,,0000*152
$GPGSA,M,3,31,32,14,01,22,48,,,,,,,4.6,2.9,3.6*124,,
$GPRMC,180420.000,A,3346.8778,N,08424.0586,W,0.00,331.93,030217,,,A*7C,,
$GPGGA,025200.000,3346.8778,N,08424.0586,W,1,06,2.9,326.9,M,-30.8,M,,0000*153
$GPGSA,M,3,31,32,14,01,22,48,,,,,,,4.6,2.9,3.6*125,,$GPGGA,0213000.000,
$GPRMC,180420.000,A,3346.8778,N,08424.0586,W,0.00,331.93,030217,,,A*7C,,
$GPGGA,025300.000,3346.8778,N,08424.0586,W,1,06,2.9,326.9,M,-30.8,M,,0000*153
$GPGSA,M,3,31,32,14,01,22,48,,,,,,,4.6,2.9,3.6*125,,
$GPRMC,180420.000,A,3346.8778,N,08424.0586,W,0.00,331.93,030217,,,A*7C,,
$GPGGA,025400.000,3346.8778,N,08424.0586,W,1,06,2.9,326.9,M,-30.8,M,,0000*154
$GPGSA,M,3,31,32,14,01,22,48,,,,,,,4.6,2.9,3.6*126,,$GPGGA,0213000.000,
$GPRMC,180420.000,A,3346.8778,N,08424.0586,W,0.00,331.93,030217,,,A*7C,,
$GPGGA,025500.000,3346.8778,N,08424.0586,W,1,06,2.9,326.9,M,-30.8,M,,0000*154
$GPGSA,M,3,31,32,14,01,22,48,,,,,,,4.6,2.9,3.6*126,,
$GPRMC,180420.000,A,3346.8778,N,08424.0586,W,0.00,331.93,030217,,,A*7C,,
$GPGGA,025600.000,3346.8778,N,08424.0586,W,1,06,2.9,326.9,M,-30.8,M,,0000*155
$GPGSA,M,3,31,32,14,01,22,48,,,,,,,4.6,2.9,3.6*127,,$GPGGA,0213000.000,
$GPRMC,180420.000,A,3346.8778,N,08424.0586,W,0.00,331.93,030217,,,A*7C,,
$GPGGA,025700.000,3346.8778,N,08424.0586,W,1,06,2.9,326.9,M,-30.8,M,,0000*155
$GPGSA,M,3,31,32,14,01,22,48,,,,,,,4.6,2.9,3.6*127,,
$GPRMC,180420.000,A,3346.8778,N,08424.0586,W,0.00,331.93,030217,,,A*7C,,
$GPGGA,025800.000,3346.8778,N,08424.0586,W,1,06,2.9,326.9,M,-30.8,M,,0000*156
$GPGSA,M,3,31,32,14,01,22,48,,,,,,,4.6,2.9,3.6*128,,$GPGGA,0213000.000,
$GPRMC,180420.000,A,3346.8778,N,08424.0586,W,0.00,331.93,030217,,,A*7C,,
$GPGGA,025900.000,3346.8778,N,08424.0586,W,1,06,2.9,326.9,M,-30.8,M,,0000*156
$GPGSA,M,3,31,32,14,01,22,48,,,,,,,4.6,2.9,3.6*128,,
$GPRMC,180420.000,A,3346.8778,N,08424.0586,W,0.00,331.93,030217,,,A*7C,,
$GPGGA,030000.000,3346.8778,N,08424.0586,W,1,06,2.9,326.9,M,-30.8,M,,0000*157
$GPGSA,M,3,31,32,14,01,22,48,,,,,,,4.6,2.9,3.6*129,,$GPGGA,0213000.000,
$GPRMC,180420.000,A,3346.8778,N,08424.0586,W,0.00,331.93,030217,,,A*7C,,
$GPGGA,030100.000,3346.8778,N,08424.0586,W,1,06,2.9,326.9,M,-30.8,M,,0000*157
$GPGSA,M,3,31,32,14,01,22,48,,,,,,,4.6,2.9,3.6*129,,
$GPRMC,180420.000,A,3346.8778,N,08424.0586,W,0.00,331.93,030217,,,A*7C,,
$GPGGA,030200.000,3346.8778,N,08424.0586,W,1,06,2.9,326.9,M,-30.8,M,,0000*158
$GPGSA,M,3,31,32,14,01,22,48,,,,,,,4.6,2.9,3.6*130,,$GPGGA,0213000.000,
$GPRMC,180420.000,A,3346.8778,N,08424.0586,W,0.00,331.93,030217,,,A*7C,,
$GPGGA,030300.000,3346.8778,N,08424.0586,W,1,06,2.9,326.9,M,-30.8,M,,0000*158
$GPGSA,M,3,31,32,14,01,22,48,,,,,,,4.6,2.9,3.6*130,,
$GPRMC,180420.000,A,3346.8778,N,08424.0586,W,0.00,331.93,030217,,,A*7C,,
$GPGGA,030400.000,3346.8778,N,08424.0586,W,1,06,2.9,326.9,M,-30.8,M,,0000*159
$GPGSA,M,3,31,32,14,01,22,48,,,,,,,4.6,2.9,3.6*131,,$GPGGA,0213000.000,
$GPRMC,180420.000,A,3346.8778,N,08424.0586,W,0.00,331.93,030217,,,A*7C,,
$GPGGA,030500.000,3346.8778,N,08424.0586,W,1,06,2.9,326.9,M,-30.8,M,,0000*159
$GPGSA,M,3,31,32,14,01,22,48,,,,,,,4.6,2.9,3.6*131,,
$GPRMC,180420.000,A,3346.8778,N,08424.0586,W,0.00,331.93,030217,,,A*7C,,
$GPGGA,030600.000,3346.8778,N,08424.0586,W,1,06,2.9,326.9,M,-30.8,M,,0000*160
$GPGSA,M,3,31,32,14,01,22,48,,,,,,,4.6,2.9,3.6*132,,$GPGGA,0213000.000,
$GPRMC,180420.000,A,3346.8778,N,08424.0586,W,0.00,331.93,030217,,,A*7C,,
$GPGGA,030700.000,3346.8778,N,08424.0586,W,1,06,2.9,326.9,M,-30.8,M,,0000*160
$GPGSA,M,3,31,32,14,01,22,48,,,,,,,4.6,2.9,3.6*132,,
$GPRMC,180420.000,A,3346.8778,N,08424.0586,W,0.00,331.93,030217,,,A*7C,,
$GPGGA,030800.000,3346.8778,N,08424.0586,W,1,06,2.9,326.9,M,-30.8,M,,0000*161
$GPGSA,M,3,31,32,14,01,22,48,,,,,,,4.6,2.9,3.6*133,,$GPGGA,0213000.000,
$GPRMC,180420.000,A,3346.8778,N,08424.0586,W,0.00,331.93,030217,,,A*7C,,
$GPGGA,030900.000,3346.8778,N,08424.0586,W,1,06,2.9,326.9,M,-30.8,M,,0000*161
$GPGSA,M,3,31,32,14,01,22,48,,,,,,,4.6,2.9,3.6*133,,
$GPRMC,180420.000,A,3346.8778,N,08424.0586,W,0.00,331.93,030217,,,A*7C,,
$GPGGA,031000.000,3346.8778,N,08424.0586,W,1,06,2.9,326.9,M,-30.8,M,,0000*162
$GPGSA,M,3,31,32,14,01,22,48,,,,,,,4.6,2.9,3.6*134,,$GPGGA,0213000.000,
$GPRMC,180420.000,A,3346.8778,N,08424.0586,W,0.00,331.93,030217,,,A*7C,,
$GPGGA,031100.000,3346.8778,N,08424.0586,W,1,06,2.9,326.9,M,-30.8,M,,0000*162
$GPGSA,M,3,31,32,14,01,22,48,,,,,,,4.6,2.9,3.6*134,,
$GPRMC,180420.000,A,3346.8778,N,08424.0586,W,0.00,331.93,030217,,,A*7C,,
$GPGGA,031200.000,3346.8778,N,08424.0586,W,1,06,2.9,326.9,M,-30.8,M,,0000*163
$GPGSA,M,3,31,32,14,01,22,48,,,,,,,4.6,2.9,3.6*135,,$GPGGA,0213000.000,
$GPRMC,180420.000,A,3346.8778,N,08424.0586,W,0.00,331.93,030217,,,A*7C,,
$GPGGA,031300.000,3346.8778,N,08424.0586,W,1,06,2.9,326.9,M,-30.8,M,,0000*163
$GPGSA,M,3,31,32,14,01,22,48,,,,,,,4.6,2.9,3.6*135,,
$GPRMC,180420.000,A,3346.8778,N,08424.0586,W,0.00,331.93,030217,,,A*7C,,
$GPGGA,031400.000,3346.8778,N,08424.0586,W,1,06,2.9,326.9,M,-30.8,M,,0000*164
$GPGSA,M,3,31,32,14,01,22,48,,,,,,,4.6,2.9,3.6*136,,$GPGGA,0213000.000,
$GPRMC,180420.000,A,3346.8778,N,08424.0586,W,0.00,331.93,030217,,,A*7C,,
$GPGGA,031500.000,3346.8778,N,08424.0586,W,1,06,2.9,326.9,M,-30.8,M,,0000*164
$GPGSA,M,3,31,32,14,01,22,48,,,,,,,4.6,2.9,3.6*136,,
$GPRMC,180420.000,A,3346.8778,N,08424.0586,W,0.00,331.93,030217,,,A*7C,,
$GPGGA,031600.000,3346.8778,N,08424.0586,W,1,06,2.9,326.9,M,-30.8,M,,0000*165
$GPGSA,M,3,31,32,14,01,22,48,,,,,,,4.6,2.9,3.6*137,,$GPGGA,0213000.000,
$GPRMC,180420.000,A,3346.8778,N,08424.0586,W,0.00,331.93,030217,,,A*7C,,
$GPGGA,031700.000,3346.8778,N,08424.0586,W,1,06,2.9,326.9,M,-30.8,M,,0000*165
$GPGSA,M,3,31,32,14,01,22,48,,,,,,,4.6,2.9,3.6*137,,
$GPRMC,180420.000,A,3346.8778,N,08424.0586,W,0.00,331.93,030217,,,A*7C,,
$GPGGA,031800.000,3346.8778,N,08424.0586,W,1,06,2.9,326.9,M,-30.8,M,,0000*166
$GPGSA,M,3,31,32,14,01,22,48,,,,,,,4.6,2.9,3.6*138,,$GPGGA,0213000.000,
$GPRMC,180420.000,A,3346.8778,N,08424.0586,W,0.00,331.93,030217,,,A*7C,,
$GPGGA,031900.000,3346.8778,N,08424.0586,W,1,06,2.9,326.9,M,-30.8,M,,0000*166
$GPGSA,M,3,31,32,14,01,22,48,,,,,,,4.6,2.9,3.6*138,,
$GPRMC,180420.000,A,3346.8778,N,08424.0586,W,0.00,331.93,030217,,,A*7C,,
$GPGGA,032000.000,3346.8778,N,08424.0586,W,1,06,2.9,326.9,M,-30.8,M,,0000*167
$GPGSA,M,3,31,32,14,01,22,48,,,,,,,4.6,2.9,3.6*139,,$GPGGA,0213000.000,
$GPRMC,180420.000,A,3346.8778,N,08424.0586,W,0.00,331.93,030217,,,A*7C,,
$GPGGA,032100.000,3346.8778,N,08424.0586,W,1,06,2.9,326.9,M,-30.8,M,,0000*167
$GPGSA,M,3,31,32,14,01,22,48,,,,,,,4.6,2.9,3.6*139,,
$GPRMC,180420.000,A,3346.8778,N,08424.0586,W,0.00,331.93,030217,,,A*7C,,
$GPGGA,032200.000,3346.8778,N,08424.0586,W,1,06,2.9,326.9,M,-30.8,M,,0000*168
$GPGSA,M,3,31,32,14,01,22,48,,,,,,,4.6,2.9,3.6*140,,$GPGGA,0213000.000,
$GPRMC,180420.000,A,3346.8778,N,08424.0586,W,0.00,331.93,030217,,,A*7C,,
$GPGGA,032300.000,3346.8778,N,08424.0586,W,1,06,2.9,326.9,M,-30.8,M,,0000*168
$GPGSA,M,3,31,32,14,01,22,48,,,,,,,4.6,2.9,3.6*140,,
$GPRMC,180420.000,A,3346.8778,N,08424.0586,W,0.00,331.93,030217,,,A*7C,,
$GPGGA,032400.000,3346.8778,N,08424.0586,W,1,06,2.9,326.9,M,-30.8,M,,0000*169
$GPGSA,M,3,31,32,14,01,22,48,,,,,,,4.6,2.9,3.6*141,,$GPGGA,0213000.000,
$GPRMC,180420.000,A,3346.8778,N,08424.0586,W,0.00,331.93,030217,,,A*7C,,
$GPGGA,032500.000,3346.8778,N,08424.0586,W,1,06,2.9,326.9,M,-30.8,M,,0000*169
$GPGSA,M,3,31,32,14,01,22,48,,,,,,,4.6,2.9,3.6*141,,
$GPRMC,180420.000,A,3346.8778,N,08424.0586,W,0.00,331.93,030217,,,A*7C,,
$GPGGA,032600.000,3346.8778,N,08424.0586,W,1,06,2.9,326.9,M,-30.8,M,,0000*170
$GPGSA,M,3,31,32,14,01,22,48,,,,,,,4.6,2.9,3.6*142,,$GPGGA,0213000.000,
$GPRMC,180420.000,A,3346.8778,N,08424.0586,W,0.00,331.93,030217,,,A*7C,,
$GPGGA,032700.000,3346.8778,N,08424.0586,W,1,06,2.9,326.9,M,-30.8,M,,0000*170
$GPGSA,M,3,31,32,14,01,22,48,,,,,,,4.6,2.9,3.6*142,,
$GPRMC,180420.000,A,3346.8778,N,08424.0586,W,0.00,331.93,030217,,,A*7C,,
$GPGGA,032800.000,3346.8778,N,08424.0586,W,1,06,2.9,326.9,M,-30.8,M,,0000*171
$GPGSA,M,3,31,32,14,01,22,48,,,,,,,4.6,2.9,3.6*143,,$GPGGA,0213000.000,
$GPRMC,180420.000,A,3346.8778,N,08424.0586,W,0.00,331.93,030217,,,A*7C,,
$GPGGA,032900.000,3346.8778,N,08424.0586,W,1,06,2.9,326.9,M,-30.8,M,,0000*171
$GPGSA,M,3,31,32,14,01,22,48,,,,,,,4.6,2.9,3.6*143,,
$GPRMC,180420.000,A,3346.8778,N,08424.0586,W,0.00,331.93,030217,,,A*7C,,
$GPGGA,033000.000,3346.8778,N,08424.0586,W,1,06,2.9,326.9,M,-30.8,M,,0000*172
$GPGSA,M,3,31,32,14,01,22,48,,,,,,,4.6,2.9,3.6*144,,$GPGGA,0213000.000,
$GPRMC,180420.000,A,3346.8778,N,08424.0586,W,0.00,331.93,030217,,,A*7C,,
$GPGGA,033100.000,3346.8778,N,08424.0586,W,1,06,2.9,326.9,M,-30.8,M,,0000*172
$GPGSA,M,3,31,32,14,01,22,48,,,,,,,4.6,2.9,3.6*144,,
$GPRMC,180420.000,A,3346.8778,N,08424.0586,W,0.00,331.93,030217,,,A*7C,,
$GPGGA,033200.000,3346.8778,N,08424.0586,W,1,06,2.9,326.9,M,-30.8,M,,0000*173
$GPGSA,M,3,31,32,14,01,22,48,,,,,,,4.6,2.9,3.6*145,,$GPGGA,0213000.000,
$GPRMC,180420.000,A,3346.8778,N,08424.0586,W,0.00,331.93,030217,,,A*7C,,
$GPGGA,033300.000,3346.8778,N,08424.0586,W,1,06,2.9,326.9,M,-30.8,M,,0000*173
$GPGSA,M,3,31,32,14,01,22,48,,,,,,,4.6,2.9,3.6*145,,
$GPRMC,180420.000,A,3346.8778,N,08424.0586,W,0.00,331.93,030217,,,A*7C,,
$GPGGA,033400.000,3346.8778,N,08424.0586,W,1,06,2.9,326.9,M,-30.8,M,,0000*174
$GPGSA,M,3,31,32,14,01,22,48,,,,,,,4.6,2.9,3.6*146,,$GPGGA,0213000.000,
$GPRMC,180420.000,A,3346.8778,N,08424.0586,W,0.00,331.93,030217,,,A*7C,,
$GPGGA,033500.000,3346.8778,N,08424.0586,W,1,06,2.9,326.9,M,-30.8,M,,0000*174
$GPGSA,M,3,31,32,14,01,22,48,,,,,,,4.6,2.9,3.6*146,,
$GPRMC,180420.000,A,3346.8778,N,08424.0586,W,0.00,331.93,030217,,,A*7C,,
$GPGGA,033600.000,3346.8778,N,08424.0586,W,1,06,2.9,326.9,M,-30.8,M,,0000*175
$GPGSA,M,3,31,32,14,01,22,48,,,,,,,4.6,2.9,3.6*147,,$GPGGA,0213000.000,
$GPRMC,180420.000,A,3346.8778,N,08424.0586,W,0.00,331.93,030217,,,A*7C,,
$GPGGA,033700.000,3346.8778,N,08424.0586,W,1,06,2.9,326.9,M,-30.8,M,,0000*175
$GPGSA,M,3,31,32,14,01,22,48,,,,,,,4.6,2.9,3.6*147,,
$GPRMC,180420.000,A,3346.8778,N,08424.0586,W,0.00,331.93,030217,,,A*7C,,
$GPGGA,033800.000,3346.8778,N,08424.0586,W,1,06,2.9,326.9,M,-30.8,M,,0000*176
$GPGSA,M,3,31,32,14,01,22,48,,,,,,,4.6,2.9,3.6*148,,$GPGGA,0213000.000,
$GPRMC,180420.000,A,3346.8778,N,08424.0586,W,0.00,331.93,030217,,,A*7C,,
$GPGGA,033900.000,3346.8778,N,08424.0586,W,1,06,2.9,326.9,M,-30.8,M,,0000*176
$GPGSA,M,3,31,32,14,01,22,48,,,,,,,4.6,2.9,3.6*148,,
$GPRMC,180420.000,A,3346.8778,N,08424.0586,W,0.00,331.93,030217,,,A*7C,,
$GPGGA,034000.000,3346.8778,N,08424.0586,W,1,06,2.9,326.9,M,-30.8,M,,0000*177
$GPGSA,M,3,31,32,14,01,22,48,,,,,,,4.6,2.9,3.6*149,,$GPGGA,0213000.000,
$GPRMC,180420.000,A,3346.8778,N,08424.0586,W,0.00,331.93,030217,,,A*7C,,
$GPGGA,034100.000,3346.8778,N,08424.0586,W,1,06,2.9,326.9,M,-30.8,M,,0000*177
$GPGSA,M,3,31,32,14,01,22,48,,,,,,,4.6,2.9,3.6*149,,
$GPRMC,180420.000,A,3346.8778,N,08424.0586,W,0.00,331.93,030217,,,A*7C,,
$GPGGA,034200.000,3346.8778,N,08424.0586,W,1,06,2.9,326.9,M,-30.8,M,,0000*178
$GPGSA,M,3,31,32,14,01,22,48,,,,,,,4.6,2.9,3.6*150,,$GPGGA,0213000.000,
$GPRMC,180420.000,A,3346.8778,N,08424.0586,W,0.00,331.93,030217,,,A*7C,,
$GPGGA,034300.000,3346.8778,N,08424.0586,W,1,06,2.9,326.9,M,-30.8,M,,0000*178
$GPGSA,M,3,31,32,14,01,22,48,,,,,,,4.6,2.9,3.6*150,,
$GPRMC,180420.000,A,3346.8778,N,08424.0586,W,0.00,331.93,030217,,,A*7C,,
$GPGGA,034400.000,3346.8778,N,08424.0586,W,1,06,2.9,326.9,M,-30.8,M,,0000*179
$GPGSA,M,3,31,32,14,01,22,48,,,,,,,4.6,2.9,3.6*151,,$GPGGA,0213000.000,
$GPRMC,180420.000,A,3346.8778,N,08424.0586,W,0.00,331.93,030217,,,A*7C,,
$GPGGA,034500.000,3346.8778,N,08424.0586,W,1,06,2.9,326.9,M,-30.8,M,,0000*179
$GPGSA,M,3,31,32,14,01,22,48,,,,,,,4.6,2.9,3.6*151,,
$GPRMC,180420.000,A,3346.8778,N,08424.0586,W,0.00,331.93,030217,,,A*7C,,
$GPGGA,034600.000,3346.8778,N,08424.0586,W,1,06,2.9,326.9,M,-30.8,M,,0000*180
$GPGSA,M,3,31,32,14,01,22,48,,,,,,,4.6,2.9,3.6*152,,$GPGGA,0213000.000,
$GPRMC,180420.000,A,3346.8778,N,08424.0586,W,0.00,331.93,030217,,,A*7C,,
$GPGGA,034700.000,3346.8778,N,08424.0586,W,1,06,2.9,326.9,M,-30.8,M,,0000*180
$GPGSA,M,3,31,32,14,01,22,48,,,,,,,4.6,2.9,3.6*152,,
$GPRMC,180420.000,A,3346.8778,N,08424.0586,W,0.00,331.93,030217,,,A*7C,,
$GPGGA,034800.000,3346.8778,N,08424.0586,W,1,06,2.9,326.9,M,-30.8,M,,0000*181
$GPGSA,M,3,31,32,14,01,22,48,,,,,,,4.6,2.9,3.6*153,,$GPGGA,0213000.000,
$GPRMC,180420.000,A,3346.8778,N,08424.0586,W,0.00,331.93,030217,,,A*7C,,
$GPGGA,034900.000,3346.8778,N,08424.0586,W,1,06,2.9,326.9,M,-30.8,M,,0000*181
$GPGSA,M,3,31,32,14,01,22,48,,,,,,,4.6,2.9,3.6*153,,
$GPRMC,180420.000,A,3346.8778,N,08424.0586,W,0.00,331.93,030217,,,A*7C,,
$GPGGA,035000.000,3346.8778,N,08424.0586,W,1,06,2.9,326.9,M,-30.8,M,,0000*182
$GPGSA,M,3,31,32,14,01,22,48,,,,,,,4.6,2.9,3.6*154,,$GPGGA,0213000.000,
$GPRMC,180420.000,A,3346.8778,N,08424.0586,W,0.00,331.93,030217,,,A*7C,,
$GPGGA,035100.000,3346.8778,N,08424.0586,W,1,06,2.9,326.9,M,-30.8,M,,0000*182
$GPGSA,M,3,31,32,14,01,22,48,,,,,,,4.6,2.9,3.6*154,,
$GPRMC,180420.000,A,3346.8778,N,08424.0586,W,0.00,331.93,030217,,,A*7C,,
$GPGGA,035200.000,3346.8778,N,08424.0586,W,1,06,2.9,326.9,M,-30.8,M,,0000*183
$GPGSA,M,3,31,32,14,01,22,48,,,,,,,4.6,2.9,3.6*155,,$GPGGA,0213000.000,
$GPRMC,180420.000,A,3346.8778,N,08424.0586,W,0.00,331.93,030217,,,A*7C,,
$GPGGA,035300.000,3346.8778,N,08424.0586,W,1,06,2.9,326.9,M,-30.8,M,,0000*183
$GPGSA,M,3,31,32,14,01,22,48,,,,,,,4.6,2.9,3.6*155,,
$GPRMC,180420.000,A,3346.8778,N,08424.0586,W,0.00,331.93,030217,,,A*7C,,
$GPGGA,035400.000,3346.8778,N,08424.0586,W,1,06,2.9,326.9,M,-30.8,M,,0000*184
$GPGSA,M,3,31,32,14,01,22,48,,,,,,,4.6,2.9,3.6*156,,$GPGGA,0213000.000,
$GPRMC,180420.000,A,3346.8778,N,08424.0586,W,0.00,331.93,030217,,,A*7C,,
$GPGGA,035500.000,3346.8778,N,08424.0586,W,1,06,2.9,326.9,M,-30.8,M,,0000*184
$GPGSA,M,3,31,32,14,01,22,48,,,,,,,4.6,2.9,3.6*156,,
$GPRMC,180420.000,A,3346.8778,N,08424.0586,W,0.00,331.93,030217,,,A*7C,,
$GPGGA,035600.000,3346.8778,N,08424.0586,W,1,06,2.9,326.9,M,-30.8,M,,0000*185
$GPGSA,M,3,31,32,14,01,22,48,,,,,,,4.6,2.9,3.6*157,,$GPGGA,0213000.000,
$GPRMC,180420.000,A,3346.8778,N,08424.0586,W,0.00,331.93,030217,,,A*7C,,
$GPGGA,035700.000,3346.8778,N,08424.0586,W,1,06,2.9,326.9,M,-30.8,M,,0000*185
$GPGSA,M,3,31,32,14,01,22,48,,,,,,,4.6,2.9,3.6*157,,
$GPRMC,180420.000,A,3346.8778,N,08424.0586,W,0.00,331.93,030217,,,A*7C,,
$GPGGA,035800.000,3346.8778,N,08424.0586,W,1,06,2.9,326.9,M,-30.8,M,,0000*186
$GPGSA,M,3,31,32,14,01,22,48,,,,,,,4.6,2.9,3.6*158,,$GPGGA,0213000.000,
$GPRMC,180420.000,A,3346.8778,N,08424.0586,W,0.00,331.93,030217,,,A*7C,,
$GPGGA,035900.000,3346.8778,N,08424.0586,W,1,06,2.9,326.9,M,-30.8,M,,0000*186
$GPGSA,M,3,31,32,14,01,22,48,,,,,,,4.6,2.9,3.6*158,,
$GPRMC,180420.000,A,3346.8778,N,08424.0586,W,0.00,331.93,030217,,,A*7C,,
$GPGGA,040000.000,3346.8778,N,08424.0586,W,1,06,2.9,326.9,M,-30.8,M,,0000*187
$GPGSA,M,3,31,32,14,01,22,48,,,,,,,4.6,2.9,3.6*159,,$GPGGA,0213000.000,
$GPRMC,180420.000,A,3346.8778,N,08424.0586,W,0.00,331.93,030217,,,A*7C,,
$GPGGA,040100.000,3346.8778,N,08424.0586,W,1,06,2.9,326.9,M,-30.8,M,,0000*187
$GPGSA,M,3,31,32,14,01,22,48,,,,,,,4.6,2.9,3.6*159,,
$GPRMC,180420.000,A,3346.8778,N,08424.0586,W,0.00,331.93,030217,,,A*7C,,
$GPGGA,040200.000,3346.8778,N,08424.0586,W,1,06,2.9,326.9,M,-30.8,M,,0000*188
$GPGSA,M,3,31,32,14,01,22,48,,,,,,,4.6,2.9,3.6*160,,$GPGGA,0213000.000,
$GPRMC,180420.000,A,3346.8778,N,08424.0586,W,0.00,331.93,030217,,,A*7C,,
$GPGGA,040300.000,3346.8778,N,08424.0586,W,1,06,2.9,326.9,M,-30.8,M,,0000*188
$GPGSA,M,3,31,32,14,01,22,48,,,,,,,4.6,2.9,3.6*160,,
$GPRMC,180420.000,A,3346.8778,N,08424.0586,W,0.00,331.93,030217,,,A*7C,,
$GPGGA,040400.000,3346.8778,N,08424.0586,W,1,06,2.9,326.9,M,-30.8,M,,0000*189
$GPGSA,M,3,31,32,14,01,22,48,,,,,,,4.6,2.9,3.6*161,,$GPGGA,0213000.000,
$GPRMC,180420.000,A,3346.8778,N,08424.0586,W,0.00,331.93,030217,,,A*7C,,
$GPGGA,040500.000,3346.8778,N,08424.0586,W,1,06,2.9,326.9,M,-30.8,M,,0000*189
$GPGSA,M,3,31,32,14,01,22,48,,,,,,,4.6,2.9,3.6*161,,
$GPRMC,180420.000,A,3346.8778,N,08424.0586,W,0.00,331.93,030217,,,A*7C,,
$GPGGA,040600.000,3346.8778,N,08424.0586,W,1,06,2.9,326.9,M,-30.8,M,,0000*190
$GPGSA,M,3,31,32,14,01,22,48,,,,,,,4.6,2.9,3.6*162,,$GPGGA,0213000.000,
$GPRMC,180420.000,A,3346.8778,N,08424.0586,W,0.00,331.93,030217,,,A*7C,,
$GPGGA,040700.000,3346.8778,N,08424.0586,W,1,06,2.9,326.9,M,-30.8,M,,0000*190
$GPGSA,M,3,31,32,14,01,22,48,,,,,,,4.6,2.9,3.6*162,,
$GPRMC,180420.000,A,3346.8778,N,08424.0586,W,0.00,331.93,030217,,,A*7C,,
$GPGGA,040800.000,3346.8778,N,08424.0586,W,1,06,2.9,326.9,M,-30.8,M,,0000*191
$GPGSA,M,3,31,32,14,01,22,48,,,,,,,4.6,2.9,3.6*163,,$GPGGA,0213000.000,
$GPRMC,180420.000,A,3346.8778,N,08424.0586,W,0.00,331.93,030217,,,A*7C,,
$GPGGA,040900.000,3346.8778,N,08424.0586,W,1,06,2.9,326.9,M,-30.8,M,,0000*191
$GPGSA,M,3,31,32,14,01,22,48,,,,,,,4.6,2.9,3.6*163,,
$GPRMC,180420.000,A,3346.8778,N,08424.0586,W,0.00,331.93,030217,,,A*7C,,
$GPGGA,041000.000,3346.8778,N,08424.0586,W,1,06,2.9,326.9,M,-30.8,M,,0000*192
$GPGSA,M,3,31,32,14,01,22,48,,,,,,,4.6,2.9,3.6*164,,$GPGGA,0213000.000,
$GPRMC,180420.000,A,3346.8778,N,08424.0586,W,0.00,331.93,030217,,,A*7C,,
$GPGGA,041100.000,3346.8778,N,08424.0586,W,1,06,2.9,326.9,M,-30.8,M,,0000*192
$GPGSA,M,3,31,32,14,01,22,48,,,,,,,4.6,2.9,3.6*164,,
$GPRMC,180420.000,A,3346.8778,N,08424.0586,W,0.00,331.93,030217,,,A*7C,,
$GPGGA,041200.000,3346.8778,N,08424.0586,W,1,06,2.9,326.9,M,-30.8,M,,0000*193
$GPGSA,M,3,31,32,14,01,22,48,,,,,,,4.6,2.9,3.6*165,,$GPGGA,0213000.000,
$GPRMC,180420.000,A,3346.8778,N,08424.0586,W,0.00,331.93,030217,,,A*7C,,
$GPGGA,041300.000,3346.8778,N,08424.0586,W,1,06,2.9,326.9,M,-30.8,M,,0000*193
$GPGSA,M,3,31,32,14,01,22,48,,,,,,,4.6,2.9,3.6*165,,
$GPRMC,180420.000,A,3346.8778,N,08424.0586,W,0.00,331.93,030217,,,A*7C,,
$GPGGA,041400.000,3346.8778,N,08424.0586,W,1,06,2.9,326.9,M,-30.8,M,,0000*194
$GPGSA,M,3,31,32,14,01,22,48,,,,,,,4.6,2.9,3.6*166,,$GPGGA,0213000.000,
$GPRMC,180420.000,A,3346.8778,N,08424.0586,W,0.00,331.93,030217,,,A*7C,,
$GPGGA,041500.000,3346.8778,N,08424.0586,W,1,06,2.9,326.9,M,-30.8,M,,0000*194
$GPGSA,M,3,31,32,14,01,22,48,,,,,,,4.6,2.9,3.6*166,,
$GPRMC,180420.000,A,3346.8778,N,08424.0586,W,0.00,331.93,030217,,,A*7C,,
$GPGGA,041600.000,3346.8778,N,08424.0586,W,1,06,2.9,326.9,M,-30.8,M,,0000*195
$GPGSA,M,3,31,32,14,01,22,48,,,,,,,4.6,2.9,3.6*167,,$GPGGA,0213000.000,
$GPRMC,180420.000,A,3346.8778,N,08424.0586,W,0.00,331.93,030217,,,A*7C,,
$GPGGA,041700.000,3346.8778,N,08424.0586,W,1,06,2.9,326.9,M,-30.8,M,,0000*195
$GPGSA,M,3,31,32,14,01,22,48,,,,,,,4.6,2.9,3.6*167,,
$GPRMC,180420.000,A,3346.8778,N,08424.0586,W,0.00,331.93,030217,,,A*7C,,
$GPGGA,041800.000,3346.8778,N,08424.0586,W,1,06,2.9,326.9,M,-30.8,M,,0000*196
$GPGSA,M,3,31,32,14,01,22,48,,,,,,,4.6,2.9,3.6*168,,$GPGGA,0213000.000,
$GPRMC,180420.000,A,3346.8778,N,08424.0586,W,0.00,331.93,030217,,,A*7C,,
$GPGGA,041900.000,3346.8778,N,08424.0586,W,1,06,2.9,326.9,M,-30.8,M,,0000*196
$GPGSA,M,3,31,32,14,01,22,48,,,,,,,4.6,2.9,3.6*168,,
$GPRMC,180420.000,A,3346.8778,N,08424.0586,W,0.00,331.93,030217,,,A*7C,,
$GPGGA,042000.000,3346.8778,N,08424.0586,W,1,06,2.9,326.9,M,-30.8,M,,0000*197
$GPGSA,M,3,31,32,14,01,22,48,,,,,,,4.6,2.9,3.6*169,,$GPGGA,0213000.000,
$GPRMC,180420.000,A,3346.8778,N,08424.0586,W,0.00,331.93,030217,,,A*7C,,
$GPGGA,042100.000,3346.8778,N,08424.0586,W,1,06,2.9,326.9,M,-30.8,M,,0000*197
$GPGSA,M,3,31,32,14,01,22,48,,,,,,,4.6,2.9,3.6*169,,
$GPRMC,180420.000,A,3346.8778,N,08424.0586,W,0.00,331.93,030217,,,A*7C,,
$GPGGA,042200.000,3346.8778,N,08424.0586,W,1,06,2.9,326.9,M,-30.8,M,,0000*198
$GPGSA,M,3,31,32,14,01,22,48,,,,,,,4.6,2.9,3.6*170,,$GPGGA,0213000.000,
$GPRMC,180420.000,A,3346.8778,N,08424.0586,W,0.00,331.93,030217,,,A*7C,,
$GPGGA,042300.000,3346.8778,N,08424.0586,W,1,06,2.9,326.9,M,-30.8,M,,0000*198
$GPGSA,M,3,31,32,14,01,22,48,,,,,,,4.6,2.9,3.6*170,,
$GPRMC,180420.000,A,3346.8778,N,08424.0586,W,0.00,331.93,030217,,,A*7C,,
$GPGGA,042400.000,3346.8778,N,08424.0586,W,1,06,2.9,326.9,M,-30.8,M,,0000*199
$GPGSA,M,3,31,32,14,01,22,48,,,,,,,4.6,2.9,3.6*171,,$GPGGA,0213000.000,
$GPRMC,180420.000,A,3346.8778,N,08424.0586,W,0.00,331.93,030217,,,A*7C,,
$GPGGA,042500.000,3346.8778,N,08424.0586,W,1,06,2.9,326.9,M,-30.8,M,,0000*199
$GPGSA,M,3,31,32,14,01,22,48,,,,,,,4.6,2.9,3.6*171,,
$GPRMC,180420.000,A,3346.8778,N,08424.0586,W,0.00,331.93,030217,,,A*7C,,
$GPGGA,042600.000,3346.8778,N,08424.0586,W,1,06,2.9,326.9,M,-30.8,M,,0000*200
$GPGSA,M,3,31,32,14,01,22,48,,,,,,,4.6,2.9,3.6*172,,$GPGGA,0213000.000,
$GPRMC,180420.000,A,3346.8778,N,08424.0586,W,0.00,331.93,030217,,,A*7C,,
$GPGGA,042700.000,3346.8778,N,08424.0586,W,1,06,2.9,326.9,M,-30.8,M,,0000*200
$GPGSA,M,3,31,32,14,01,22,48,,,,,,,4.6,2.9,3.6*172,,
$GPRMC,180420.000,A,3346.8778,N,08424.0586,W,0.00,331.93,030217,,,A*7C,,
$GPGGA,042800.000,3346.8778,N,08424.0586,W,1,06,2.9,326.9,M,-30.8,M,,0000*201
$GPGSA,M,3,31,32,14,01,22,48,,,,,,,4.6,2.9,3.6*173,,$GPGGA,0213000.000,
$GPRMC,180420.000,A,3346.8778,N,08424.0586,W,0.00,331.93,030217,,,A*7C,,
$GPGGA,042900.000,3346.8778,N,08424.0586,W,1,06,2.9,326.9,M,-30.8,M,,0000*201
$GPGSA,M,3,31,32,14,01,22,48,,,,,,,4.6,2.9,3.6*173,,
$GPRMC,180420.000,A,3346.8778,N,08424.0586,W,0.00,331.93,030217,,,A*7C,,
$GPGGA,043000.000,3346.8778,N,08424.0586,W,1,06,2.9,326.9,M,-30.8,M,,0000*202
$GPGSA,M,3,31,32,14,01,22,48,,,,,,,4.6,2.9,3.6*174,,$GPGGA,0213000.000,
$GPRMC,180420.000,A,3346.8778,N,08424.0586,W,0.00,331.93,030217,,,A*7C,,
$GPGGA,043100.000,3346.8778,N,08424.0586,W,1,06,2.9,326.9,M,-30.8,M,,0000*202
$GPGSA,M,3,31,32,14,01,22,48,,,,,,,4.6,2.9,3.6*174,,
$GPRMC,180420.000,A,3346.8778,N,08424.0586,W,0.00,331.93,030217,,,A*7C,,
$GPGGA,043200.000,3346.8778,N,08424.0586,W,1,06,2.9,326.9,M,-30.8,M,,0000*203
$GPGSA,M,3,31,32,14,01,22,48,,,,,,,4.6,2.9,3.6*175,,$GPGGA,0213000.000,
$GPRMC,180420.000,A,3346.8778,N,08424.0586,W,0.00,331.93,030217,,,A*7C,,
$GPGGA,043300.000,3346.8778,N,08424.0586,W,1,06,2.9,326.9,M,-30.8,M,,0000*203
$GPGSA,M,3,31,32,14,01,22,48,,,,,,,4.6,2.9,3.6*175,,
$GPRMC,180420.000,A,3346.8778,N,08424.0586,W,0.00,331.93,030217,,,A*7C,,
$GPGGA,043400.000,3346.8778,N,08424.0586,W,1,06,2.9,326.9,M,-30.8,M,,0000*204
$GPGSA,M,3,31,32,14,01,22,48,,,,,,,4.6,2.9,3.6*176,,$GPGGA,0213000.000,
$GPRMC,180420.000,A,3346.8778,N,08424.0586,W,0.00,331.93,030217,,,A*7C,,
$GPGGA,043500.000,3346.8778,N,08424.0586,W,1,06,2.9,326.9,M,-30.8,M,,0000*204
$GPGSA,M,3,31,32,14,01,22,48,,,,,,,4.6,2.9,3.6*176,,
$GPRMC,180420.000,A,3346.8778,N,08424.0586,W,0.00,331.93,030217,,,A*7C,,
$GPGGA,043600.000,3346.8778,N,08424.0586,W,1,06,2.9,326.9,M,-30.8,M,,0000*205
$GPGSA,M,3,31,32,14,01,22,48,,,,,,,4.6,2.9,3.6*177,,$GPGGA,0213000.000,
$GPRMC,180420.000,A,3346.8778,N,08424.0586,W,0.00,331.93,030217,,,A*7C,,
$GPGGA,043700.000,3346.8778,N,08424.0586,W,1,06,2.9,326.9,M,-30.8,M,,0000*205
$GPGSA,M,3,31,32,14,01,22,48,,,,,,,4.6,2.9,3.6*177,,
$GPRMC,180420.000,A,3346.8778,N,08424.0586,W,0.00,331.93,030217,,,A*7C,,
$GPGGA,043800.000,3346.8778,N,08424.0586,W,1,06,2.9,326.9,M,-30.8,M,,0000*206
$GPGSA,M,3,31,32,14,01,22,48,,,,,,,4.6,2.9,3.6*178,,$GPGGA,0213000.000,
$GPRMC,180420.000,A,3346.8778,N,08424.0586,W,0.00,331.93,030217,,,A*7C,,
$GPGGA,043900.000,3346.8778,N,08424.0586,W,1,06,2.9,326.9,M,-30.8,M,,0000*206
$GPGSA,M,3,31,32,14,01,22,48,,,,,,,4.6,2.9,3.6*178,,
$GPRMC,180420.000,A,3346.8778,N,08424.0586,W,0.00,331.93,030217,,,A*7C,,
$GPGGA,044000.000,3346.8778,N,08424.0586,W,1,06,2.9,326.9,M,-30.8,M,,0000*207
$GPGSA,M,3,31,32,14,01,22,48,,,,,,,4.6,2.9,3.6*179,,$GPGGA,0213000.000,
$GPRMC,180420.000,A,3346.8778,N,08424.0586,W,0.00,331.93,030217,,,A*7C,,
$GPGGA,044100.000,3346.8778,N,08424.0586,W,1,06,2.9,326.9,M,-30.8,M,,0000*207
$GPGSA,M,3,31,32,14,01,22,48,,,,,,,4.6,2.9,3.6*179,,
