$GPGGA,180420.000,3346.8778,N,08424.0586,W,1,06,2.9,326.9,M,-30.8,M,,0000*67
$GPGSA,M,3,31,32,14,01,22,48,,,,,,,4.6,2.9,3.6*39
$GPRMC,180420.000,A,3346.8778,N,08424.0586,W,0.00,331.93,030217,,,A*7C
$GPGGA,180421.000,3346.8778,N,08424.0586,W,1,06,2.9,326.9,M,-30.8,M,,0000*66
$GPGSA,M,3,31,32,14,01,22,48,,,,,,,4.6,2.9,3.6*39
$GPRMC,180421.000,A,3346.8778,N,08424.0586,W,0.00,331.93,030217,,,A*7D
$GPGGA,180422.000,3346.8778,N,08424.0586,W,1,06,2.9,326.9,M,-30.8,M,,0000*65
$GPGSA,M,3,31,32,14,01,22,48,,,,,,,4.6,2.9,3.6*39
$GPRMC,180422.000,A,3346.8778,N,08424.0586,W,0.00,331.93,030217,,,A*7E
$GPGGA,180423.000,3346.8778,N,08424.0586,W,1,06,2.9,326.9,M,-30.8,M,,0000*64
$GPGSA,M,3,31,32,14,01,22,48,,,,,,,4.6,2.9,3.6*39
$GPGSV,3,1,12,31,64,235,31,32,60,028,13,14,58,331,32,01,18,304,25*71
$GPGSV,3,2,12,22,14,315,33,48,27,242,34,10,56,141,21,11,09,282,23*76
$GPGSV,3,3,12,12,18,047,14,25,39,088,12,18,25,140,,04,24,290,*7A
$GPRMC,180423.000,A,3346.8778,N,08424.0586,W,0.00,331.93,030217,,,A*7F
$GPGGA,180424.000,3346.8778,N,08424.0586,W,1,06,2.9,326.9,M,-30.8,M,,0000*63
$GPGSA,M,3,31,32,14,01,22,48,,,,,,,4.6,2.9,3.6*39
$GPRMC,180424.000,A,3346.8778,N,08424.0586,W,0.00,331.93,030217,,,A*78
$GPGGA,180425.000,3346.8779,N,08424.0588,W,1,06,2.9,326.9,M,-30.8,M,,0000*6D
$GPGSA,M,3,31,32,14,01,22,48,,,,,,,4.6,2.9,3.6*39
$GPRMC,180425.000,A,3346.8779,N,08424.0588,W,0.10,331.93,030217,,,A*77
$GPGGA,180426.000,3346.8779,N,08424.0588,W,1,06,2.9,326.9,M,-30.8,M,,0000*6E
$GPGSA,M,3,31,32,14,01,22,48,,,,,,,4.6,2.9,3.6*39
$GPRMC,180426.000,A,3346.8779,N,08424.0588,W,0.00,331.93,030217,,,A*75
$GPGGA,180427.000,3346.8779,N,08424.0588,W,1,06,2.9,326.9,M,-30.8,M,,0000*6F
$GPGSA,M,3,31,32,14,01,22,48,,,,,,,4.6,2.9,3.6*39
$GPRMC,180427.000,A,3346.8779,N,08424.0588,W,0.00,331.93,030217,,,A*74
$GPGGA,180428.000,3346.8779,N,08424.0588,W,1,06,2.9,326.9,M,-30.8,M,,0000*60
$GPGSA,M,31,22,48,,,,,,,4.6,2.9,3.6*39
$GPGSV,3,1,12,31,64,235,31,32,60,028,18,14,58,331,32,01,18,304,26*79
$GPGSV,3,2,12,22,14,315,34,48,27,242,32,10,56,141,14,11,09,282,20*72
$GPGSV,3,3,12,25,39,088,13,18,25,140,,04,24,290,,12,18,047,*7E
$GPRMC,180443.000,A,3346.8781,N,08424.0594,W,0.00,331.93,030217,,,A*7C
$GPGGA,180444.000,3346.8781,N,08424.0594,W,1,06,2.9,326.6,M,-30.8,M,,0000*6F
$GPGSA,M,3,31,32,14,01,22,48,,,,,,,4.6,2.9,3.6*39
$GPRMC,180444.000,A,3346.8781,N,08424.0594,W,0.00,331.93,030217,,,A*7B
$GPGGA,180445.000,3346.8781,N,08424.0594,W,1,06,2.9,326.6,M,-30.8,M,,0000*6E
$GPGSA,M,3,31,32,14,01,22,48,,,,,,,4.6,2.9,3.6*39
$GPRMC,180445.000,A,3346.8781,N,08424.0594,W,0.00,331.93,030217,,,A*7A
$GPGGA,180446.000,3346.8781,N,08424.0594,W,1,06,2.9,326.6,M,-30.8,M,,0000*6D
$GPGSA,M,3,31,32,14,01,22,48,,,,,,,4.6,2.9,3.6*39
$GPRMC,180446.000,A,3346.8781,N,08424.0594,W,0.00,331.93,030217,,,A*79
$GPGGA,180447.000,3346.8781,N,08424.0594,W,1,06,2.9,326.6,M,-30.8,M,,0000*6C
$GPGSA,M,3,31,32,14,01,22,48,,,,,,,4.6,2.9,3.6*39
$GPRMC,180447.000,A,3346.8781,N,08424.0594,W,0.00,331.93,030217,,,A*78
$GPGGA,180448.000,3346.8781,N,08424.0594,W,1,06,2.9,326.6,M,-30.8,M,,0000*63
$GPGSA,M,3,31,32,14,01,22,48,,,,,,,4.6,2.9,3.6*39
$GPGSV,3,1,12,31,64,235,31,32,60,028,18,14,58,331,32,01,18,304,25*7A
$GPGSV,3,2,12,22,14,315,35,48,27,242,32,10,56,141,15,11,09,282,20*72
$GPGSV,3,3,12,25,39,088,12,18,25,140,,04,24,290,,12,18,047,*7F
$GPRMC,180448.000,A,3346.8781,N,08424.0594,W,0.00,331.93,030217,,,A*77
$GPGGA,180449.000,3346.8781,N,08424.0594,W,1,06,2.9,326.6,M,-30.8,M,,0000*62
$GPGSA,M,3,31,32,14,01,22,48,,,,,,,4.6,2.9,3.6*39
$GPRMC,180449.000,A,3346.8781,N,08424.0594,W,0.00,331.93,030217,,,A*76
$GPGGA,180450.000,3346.8781,N,08424.0594,W,1,06,2.9,326.6,M,-30.8,M,,0000*6A
$GPGSA,M,3,31,32,14,01,22,48,,,,,,,4.6,2.9,3.6*39
$GPRMC,180450.000,A,3346.8781,N,08424.0594,W,0.00,331.93,030217,,,A*7E
$GPGGA,180451.000,3346.8781,N,08424.0594,W,1,06,2.9,326.6,M,-30.8,M,,0000*6B
$GPGSA,M,3,31,32,14,01,22,48,,,,,,,4.6,2.9,3.6*39
$GPRMC,180451.000,A,3346.8781,N,08424.0594,W,0.00,331.93,030217,,,A*7F
$GPGGA,180452.000,3346.8781,N,08424.0594,W,1,06,2.9,326.6,M,-30.8,M,,0000*68
$GPGSA,M,3,31,32,14,01,22,48,,,,,,,4.6,2.9,3.6*39
$GPRMC,180452.000,A,3346.8781,N,08424.0594,W,0.00,331.93,030217,,,A*7C
$GPGGA,180453.000,3346.8781,N,08424.0594,W,1,06,2.9,326.6,M,-30.8,M,,0000*69
$GPGSA,M,3,31,32,14,01,22,48,,,,,,,4.6,2.9,3.6*39
$GPGSV,3,1,12,31,64,235,31,32,60,028,18,14,58,331,32,01,18,304,25*7A
$GPGSV,3,2,12,22,14,315,35,48,27,242,33,10,56,141,17,11,09,282,20*71
$GPGSV,3,3,12,25,39,088,13,18,25,140,,04,24,290,,12,18,047,*7E
$GPRMC,180453.000,A,3346.8781,N,08424.0594,W,0.00,331.93,030217,,,A*7D